"CODI_EQUIPAMENT","EQUIPAMENT","SECCIO","TIPUS_VIA","NOM_CARRER","NUM_CARRER_1","NUM_CARRER_2","CODI_BARRI","NUM_BARRI","CODI_DISTRICTE","NOM_DISTRICTE","CODI_POSTAL","CODI_POBLACIO","POBLACIO","LATITUD","LONGITUD","X_ETRS89","Y_ETRS89","X_ED50","Y_ED50","TELEFON_NUM","TELEFON_TIPUS","TELEFON_INFO_COM","HORARI_PERIODE_INICI","HORARI_PERIODE_FI","HORARI_DIES","HORARI_HORES_INICI","HORARI_HORES_FI","HORARI_OBSERVACIONS",
"12134410","Centre Educatiu Amor de Dios","#","C","Travau","52","60","46","el Turó de la Peira","08","Nou Barris","08031","019","BARCELONA","41.431706","2.166917","430395.266","4587017.225","430487.197","4587218.205","934209913","Fax","","","","","","","",
"12134410","Centre Educatiu Amor de Dios","#","C","Travau","52","60","46","el Turó de la Peira","08","Nou Barris","08031","019","BARCELONA","41.431706","2.166917","430395.266","4587017.225","430487.197","4587218.205","934293921","#","","","","","","","",
"19112356","Llar d'Infants Els Gegants","#","Pg","Zona Franca","168","168","13","la Marina de Port","03","Sants-Montjuïc","08038","019","BARCELONA","41.360236","2.139624","428036.075","4579104.949","428127.986","4579305.856","932964818","#","","","","","","","",
"19181742","Parvulari Pandy de Sant Marc","#","C","Provença","525","525","06","la Sagrada Família","02","Eixample","08025","019","BARCELONA","41.408155","2.178837","431366.425","4584393.071","431458.365","4584594.027","933477939","#","","","","","","","",
"1081092719","Escola Ferran Sunyer","#","C","Viladomat","2","8","10","Sant Antoni","02","Eixample","08015","019","BARCELONA","41.375936","2.163198","430024.733","4580828.618","430116.662","4581029.541","933248442","#","","","","","","","",
"1081092719","Escola Ferran Sunyer","#","C","Viladomat","2","8","10","Sant Antoni","02","Eixample","08015","019","BARCELONA","41.375936","2.163198","430024.733","4580828.618","430116.662","4581029.541","933248441","Fax","","","","","","","",
"1299090907","Llar d'Infants Xiulet","#","C","Entença","100","100","09","la Nova Esquerra de l'Eixample","02","Eixample","08015","019","BARCELONA","41.380279","2.149985","428924.543","4581321.563","429016.462","4581522.49","934234448","#","","","","","","","",
"2093120653","Escola Bressol Municipal Portal Nou","#","C","Portal Nou","2","2","04","Sant Pere, Santa Caterina i la Ribera","01","Ciutat Vella","08003","019","BARCELONA","41.388267","2.180724","431503.269","4582183.593","431595.211","4582384.529","933101807","#","","","","","","","",
"2093120848","Escola Bressol Municipal Els Tres Tombs","#","C","Manso","28","28","10","Sant Antoni","02","Eixample","08015","019","BARCELONA","41.376275","2.16082","429826.218","4580868.211","429918.145","4581069.134","933250913","#","","","","","","","",
"2093121443","Escola Bressol Municipal L'Oreneta","#","Pg","Santa Eulàlia","18","18","23","Sarrià","05","Sarrià-Sant Gervasi","08017","019","BARCELONA","41.405268","2.115342","426056.136","4584124.79","426148.028","4584325.742","932804683","#","","","","","","","",
"2093122108","Escola Bressol Municipal Ciutat de Mallorca","#","C","Deià","12","12","45","Porta","08","Nou Barris","08016","019","BARCELONA","41.43294","2.177675","431295.428","4587145.624","431387.367","4587346.606","933593854","#","","","","","","","",
"2093122837","Escola Bressol Municipal L'Arquet","#","C","Jorge Manrique","12","12","41","la Vall d'Hebron","07","Horta-Guinardó","08035","019","BARCELONA","41.43153","2.151592","429114.697","4587010.105","429206.616","4587211.085","934272798","#","","","","","","","",
"2093122931","Escola Bressol Municipal El Caminet del Besòs","#","C","Quito","2","2","58","Baró de Viver","09","Sant Andreu","08030","019","BARCELONA","41.445804","2.19973","433151.319","4588556.479","433243.275","4588757.475","933116686","#","","","","","","","",
"2093123310","Escola Bressol Municipal El Xalet de la Paperera","#","Pl","Julio González","14","14","68","el Poblenou","10","Sant Martí","08005","019","BARCELONA","41.400987","2.206947","433708.652","4583575.363","433800.614","4583776.313","932214100","#","","","","","","","",
"2093123421","Escola Bressol Municipal La Mar Xica","#","C","Carmen Amaya","2","2","68","el Poblenou","10","Sant Martí","08005","019","BARCELONA","41.395054","2.203674","433428.976","4582919.277","433520.936","4583120.22","932211969","#","","","","","","","",
"75990000997","Llar d'Infants Alfa","#","Ptge","Esperança","7","7","44","Vilapicina i la Torre Llobeta","08","Nou Barris","08016","019","BARCELONA","41.429098","2.176855","431222.835","4586719.664","431314.773","4586920.642","933527406","#","","","","","","","",
"75990008599","Centre Educatiu IPSI","#","C","Comte Borrell","243","249","09","la Nova Esquerra de l'Eixample","02","Eixample","08029","019","BARCELONA","41.386861","2.149925","428926.735","4582052.31","429018.654","4582253.244","934449000","#","","","","","","","",
"75990012256","Llar d'Infants Donald *Acàcies","#","C","Acàcies","9","11","62","el Congrés i els Indians","09","Sant Andreu","08027","019","BARCELONA","41.424226","2.178163","431327.04","4586177.737","431418.98","4586378.71","933401476","#","","","","","","","",
"75990016466","Centre Educatiu Lestonnac","#","C","Aragó","284","284","07","la Dreta de Eixample","02","Eixample","08007","019","BARCELONA","41.392634","2.165757","430256.548","4582680.375","430348.479","4582881.315","934873693","Fax","(c. Pau Claris)","","","","","","",
"75990016466","Centre Educatiu Lestonnac","#","C","Pau Claris","131","131","07","la Dreta de Eixample","02","Eixample","08009","019","BARCELONA","41.392866","2.166816","430345.36","4582705.289","430437.291","4582906.23","934873693","Fax","(c. Pau Claris)","","","","","","",
"75990016466","Centre Educatiu Lestonnac","#","C","Aragó","284","284","07","la Dreta de Eixample","02","Eixample","08007","019","BARCELONA","41.392634","2.165757","430256.548","4582680.375","430348.479","4582881.315","932153932","#","(c. Aragó)","","","","","","",
"75990016466","Centre Educatiu Lestonnac","#","C","Pau Claris","131","131","07","la Dreta de Eixample","02","Eixample","08009","019","BARCELONA","41.392866","2.166816","430345.36","4582705.289","430437.291","4582906.23","932159900","#","(c. Pau Claris)","","","","","","",
"75990016466","Centre Educatiu Lestonnac","#","C","Pau Claris","131","131","07","la Dreta de Eixample","02","Eixample","08009","019","BARCELONA","41.392866","2.166816","430345.36","4582705.289","430437.291","4582906.23","934875479","Fax","(c. Aragó)","","","","","","",
"75990016466","Centre Educatiu Lestonnac","#","C","Pau Claris","131","131","07","la Dreta de Eixample","02","Eixample","08009","019","BARCELONA","41.392866","2.166816","430345.36","4582705.289","430437.291","4582906.23","932153932","#","(c. Aragó)","","","","","","",
"75990016466","Centre Educatiu Lestonnac","#","C","Aragó","284","284","07","la Dreta de Eixample","02","Eixample","08007","019","BARCELONA","41.392634","2.165757","430256.548","4582680.375","430348.479","4582881.315","932159900","#","(c. Pau Claris)","","","","","","",
"75990016466","Centre Educatiu Lestonnac","#","C","Aragó","284","284","07","la Dreta de Eixample","02","Eixample","08007","019","BARCELONA","41.392634","2.165757","430256.548","4582680.375","430348.479","4582881.315","934875479","Fax","(c. Aragó)","","","","","","",
"75990021777","Centre Educatiu Josep Tous","#","C","Begur","10","20","17","Sants - Badal","03","Sants-Montjuïc","08028","019","BARCELONA","41.374985","2.129235","427183.625","4580751.094","427275.528","4580952.016","934223515","Fax","","","","","","","",
"75990021777","Centre Educatiu Josep Tous","#","C","Begur","10","20","17","Sants - Badal","03","Sants-Montjuïc","08028","019","BARCELONA","41.374985","2.129235","427183.625","4580751.094","427275.528","4580952.016","934224640","#","","","","","","","",
"75990025727","Centre Educatiu Sant Gregori","#","C","Carles Riba","11","15","25","Sant Gervasi - la Bonanova","05","Sarrià-Sant Gervasi","08035","019","BARCELONA","41.412448","2.1252","426888.131","4584913.557","426980.03","4585114.517","932123998","#","(edifici Arimon)","","","","","","",
"75990025727","Centre Educatiu Sant Gregori","#","C","Arimon","17","17","25","Sant Gervasi - la Bonanova","05","Sarrià-Sant Gervasi","08022","019","BARCELONA","41.404388","2.137031","427868.028","4584008.84","427959.936","4584209.792","932123998","#","(edifici Arimon)","","","","","","",
"75990025727","Centre Educatiu Sant Gregori","#","C","Carles Riba","11","15","25","Sant Gervasi - la Bonanova","05","Sarrià-Sant Gervasi","08035","019","BARCELONA","41.412448","2.1252","426888.131","4584913.557","426980.03","4585114.517","932123108","#","","","","","","","",
"75990025727","Centre Educatiu Sant Gregori","#","C","Arimon","17","17","25","Sant Gervasi - la Bonanova","05","Sarrià-Sant Gervasi","08022","019","BARCELONA","41.404388","2.137031","427868.028","4584008.84","427959.936","4584209.792","932123108","#","","","","","","","",
"75990032092","Centre Educatiu FEDAC-Horta","#","C","Campoamor","49","49","43","Horta","07","Horta-Guinardó","08031","019","BARCELONA","41.434525","2.155207","429419.963","4587339.599","429511.885","4587540.582","934275496","#","","","","","","","",
"75990033216","Parvulari Dídac","#","C","Cardenal Reig","14","14","20","la Maternitat i Sant Ramon","04","Les Corts","08028","019","BARCELONA","41.376965","2.114656","425966.667","4580983.254","426058.559","4581184.177","933344020","#","","","","","","","",
"75990035579","Centre Educatiu IPSE","#","C","Casanova","175","175","08","l'Antiga Esquerra de l'Eixample","02","Eixample","08036","019","BARCELONA","41.392116","2.149766","428919.124","4582635.899","429011.042","4582836.838","933215099","#","","","","","","","",
"75990035579","Centre Educatiu IPSE","#","C","Londres","72","72","08","l'Antiga Esquerra de l'Eixample","02","Eixample","08036","019","BARCELONA","41.39204","2.14903","428857.531","4582627.99","428949.449","4582828.929","934390215","Fax","","","","","","","",
"75990035579","Centre Educatiu IPSE","#","C","Casanova","175","175","08","l'Antiga Esquerra de l'Eixample","02","Eixample","08036","019","BARCELONA","41.392116","2.149766","428919.124","4582635.899","429011.042","4582836.838","934390215","Fax","","","","","","","",
"75990035579","Centre Educatiu IPSE","#","C","Londres","72","72","08","l'Antiga Esquerra de l'Eixample","02","Eixample","08036","019","BARCELONA","41.39204","2.14903","428857.531","4582627.99","428949.449","4582828.929","933215099","#","","","","","","","",
"75990039370","Centre Educatiu Canigó","#","C","Cister","23","23","25","Sant Gervasi - la Bonanova","05","Sarrià-Sant Gervasi","08022","019","BARCELONA","41.411066","2.133169","427552.633","4584753.454","427644.538","4584954.413","932110217","#","","","","","","","",
"75990039370","Centre Educatiu Canigó","#","C","Cister","23","23","25","Sant Gervasi - la Bonanova","05","Sarrià-Sant Gervasi","08022","019","BARCELONA","41.411066","2.133169","427552.633","4584753.454","427644.538","4584954.413","934189846","Fax","","","","","","","",
"75990040205","Centre Educatiu Sant Ramon Nonat","#","C","Collblanc","72","72","20","la Maternitat i Sant Ramon","04","Les Corts","08028","019","BARCELONA","41.375937","2.116325","426105.068","4580867.733","426196.961","4581068.655","933339972","#","","","","","","","",
"75990040207","Centre Educatiu Sant Ramon Nonat-Sagrat Cor","#","C","Collblanc","86","86","20","la Maternitat i Sant Ramon","04","Les Corts","08028","019","BARCELONA","41.375937","2.116325","426105.068","4580867.733","426196.961","4581068.655","934490570","#","","","","","","","",
"75990042577","Llar d'Infants Cel Blau","#","C","Consell de Cent","203","203","08","l'Antiga Esquerra de l'Eixample","02","Eixample","08011","019","BARCELONA","41.384498","2.156741","429494.056","4581784.46","429585.98","4581985.392","933230494","#","","","","","","","",
"75990043220","Llar d'Infants Drac Màgic","#","C","Consell de Cent","435","435","07","la Dreta de Eixample","02","Eixample","08009","019","BARCELONA","41.397294","2.173765","430931.004","4583191.365","431022.941","4583392.31","932328627","#","","","","","","","",
"75990043220","Llar d'Infants Drac Màgic","#","C","Consell de Cent","435","435","07","la Dreta de Eixample","02","Eixample","08009","019","BARCELONA","41.397294","2.173765","430931.004","4583191.365","431022.941","4583392.31","932328627","Fax","","","","","","","",
"75990043873","Centre Educatiu Mary Ward","#","C","Copèrnic","55","55","26","Sant Gervasi - Galvany","05","Sarrià-Sant Gervasi","08006","019","BARCELONA","41.401324","2.141371","428227.408","4583665.085","428319.32","4583866.034","932018555","#","","","","","","","",
"75990048204","Centre Educatiu Sagrat Cor-Diputació","#","C","Diputació","326","326","07","la Dreta de Eixample","02","Eixample","08009","019","BARCELONA","41.395297","2.174303","430973.815","4582969.212","431065.752","4583170.155","932657121","Fax","","","","","","","",
"75990048204","Centre Educatiu Sagrat Cor-Diputació","#","C","Diputació","326","326","07","la Dreta de Eixample","02","Eixample","08009","019","BARCELONA","41.395297","2.174303","430973.815","4582969.212","431065.752","4583170.155","932656361","#","","","","","","","",
"75990049345","Centre Educatiu Guinardó","#","C","Doctor Valls","22","26","35","el Guinardó","07","Horta-Guinardó","08041","019","BARCELONA","41.420034","2.178917","431385.588","4585711.772","431477.528","4585912.741","935102885","Fax","","","","","","","",
"75990049345","Centre Educatiu Guinardó","#","C","Doctor Valls","22","26","35","el Guinardó","07","Horta-Guinardó","08041","019","BARCELONA","41.420034","2.178917","431385.588","4585711.772","431477.528","4585912.741","934353940","#","","","","","","","",
"75990050263","Escola d'Educació Infantil Magnòlia","#","C","Emili Roca","52","58","45","Porta","08","Nou Barris","08016","019","BARCELONA","41.430843","2.178233","431339.815","4586912.292","431431.754","4587113.272","934084887","#","","","","","","","",
"75990050263","Escola d'Educació Infantil Magnòlia","#","C","Emili Roca","52","58","45","Porta","08","Nou Barris","08016","019","BARCELONA","41.430843","2.178233","431339.815","4586912.292","431431.754","4587113.272","933492342","Fax","","","","","","","",
"75990057201","Centre Educatiu  Princesa Margarita","#","Pg","Font d'en Fargas","15","17","36","la Font d'en Fargues","07","Horta-Guinardó","08032","019","BARCELONA","41.426208","2.165862","430301.28","4586407.679","430393.21","4586608.654","934208166","#","","","","","","","",
"75990057201","Centre Educatiu  Princesa Margarita","#","Pg","Font d'en Fargas","15","17","36","la Font d'en Fargues","07","Horta-Guinardó","08032","019","BARCELONA","41.426208","2.165862","430301.28","4586407.679","430393.21","4586608.654","934290313","#","","","","","","","",
"75990067136","Centre Educatiu Zurich","#","Av","Pearson","73","73","21","Pedralbes","04","Les Corts","08034","019","BARCELONA","41.393561","2.104445","425131.836","4582834.476","425223.719","4583035.416","932037606","#","","","","","","","",
"75990068500","Llar d'Infants Corazón de Jesús","#","C","Immaculada","19","19","25","Sant Gervasi - la Bonanova","05","Sarrià-Sant Gervasi","08017","019","BARCELONA","41.406124","2.123117","426706.924","4584213.267","426798.822","4584414.22","934170729","Fax","","","","","","","",
"75990068500","Llar d'Infants Corazón de Jesús","#","C","Immaculada","19","19","25","Sant Gervasi - la Bonanova","05","Sarrià-Sant Gervasi","08017","019","BARCELONA","41.406124","2.123117","426706.924","4584213.267","426798.822","4584414.22","934170729","#","","","","","","","",
"75990068951","Centre Educatiu Decroly","#","C","Vendrell","1","1","25","Sant Gervasi - la Bonanova","05","Sarrià-Sant Gervasi","08022","019","BARCELONA","41.410649","2.133719","427598.164","4584706.655","427690.07","4584907.613","934175271","#","Edifici Primària (Vendrell, 1)","","","","","","",
"75990068951","Centre Educatiu Decroly","#","C","Vendrell","13","13","25","Sant Gervasi - la Bonanova","05","Sarrià-Sant Gervasi","08022","019","BARCELONA","41.410083","2.133106","427546.324","4584644.308","427638.229","4584845.266","934175271","#","Edifici Primària (Vendrell, 1)","","","","","","",
"75990068951","Centre Educatiu Decroly","#","C","Vendrell","13","13","25","Sant Gervasi - la Bonanova","05","Sarrià-Sant Gervasi","08022","019","BARCELONA","41.410083","2.133106","427546.324","4584644.308","427638.229","4584845.266","932123847","#","Edifici Infantil (C. Vendrell 13)","","","","","","",
"75990068951","Centre Educatiu Decroly","#","C","Vendrell","1","1","25","Sant Gervasi - la Bonanova","05","Sarrià-Sant Gervasi","08022","019","BARCELONA","41.410649","2.133719","427598.164","4584706.655","427690.07","4584907.613","932123847","#","Edifici Infantil (C. Vendrell 13)","","","","","","",
"75990073634","Llar d'Infants Befana","#","C","Lafont","20","20","11","el Poble-sec","03","Sants-Montjuïc","08004","019","BARCELONA","41.372971","2.168841","430493.499","4580494.949","430585.433","4580695.869","933295899","#","","","","","","","",
"75990084462","Llar d'Infants Apolo X","#","Av","Paral·lel","110","110","10","Sant Antoni","02","Eixample","08015","019","BARCELONA","41.37535","2.164058","430096.048","4580762.948","430187.978","4580963.87","933290668","#","","","","","","","",
"75990088091","Llar d'Infants L'Acis","#","C","Miquel dels Sants Oliver","4","4","34","Can Baró","07","Horta-Guinardó","08024","019","BARCELONA","41.414463","2.160511","429841.525","4585108.011","429933.451","4585308.974","932844635","#","","","","","","","",
"75990093770","Aula Escuela Europea","#","Av","Mare de Déu de Lorda","34","36","21","Pedralbes","04","Les Corts","08034","019","BARCELONA","41.39808","2.107242","425370.821","4583333.709","425462.706","4583534.654","932030354","#","","","","","","","",
"75990093770","Aula Escuela Europea","#","Av","Mare de Déu de Lorda","34","36","21","Pedralbes","04","Les Corts","08034","019","BARCELONA","41.39808","2.107242","425370.821","4583333.709","425462.706","4583534.654","932056269","Fax","","","","","","","",
"75990098691","Centre Educatiu Sant Pau","#","Av","Pearson","39","39","21","Pedralbes","04","Les Corts","08034","019","BARCELONA","41.39201","2.105114","425186.028","4582661.651","425277.912","4582862.59","932057570","Fax","","","","","","","",
"75990098691","Centre Educatiu Sant Pau","#","Av","Pearson","39","39","21","Pedralbes","04","Les Corts","08034","019","BARCELONA","41.39201","2.105114","425186.028","4582661.651","425277.912","4582862.59","932030500","#","","","","","","","",
"75990099722","Centre Educatiu Sagrada Família-Horta","#","C","Peris i Mencheta","26","26","36","la Font d'en Fargues","07","Horta-Guinardó","08032","019","BARCELONA","41.426622","2.16273","430040.004","4586456.175","430131.932","4586657.15","933570208","#","","","","","","","",
"75990099722","Centre Educatiu Sagrada Família-Horta","#","C","Peris i Mencheta","26","26","36","la Font d'en Fargues","07","Horta-Guinardó","08032","019","BARCELONA","41.426622","2.16273","430040.004","4586456.175","430131.932","4586657.15","933570201","Fax","","","","","","","",
"75990103551","Centre Educatiu Marillac","#","C","Sicília","249","249","06","la Sagrada Família","02","Eixample","08025","019","BARCELONA","41.402956","2.171536","430750.633","4583821.682","430842.568","4584022.633","934578848","#","","","","","","","",
"75990104823","Centre Educatiu Lys","#","C","Puig-reig","9","9","27","el Putxet i el Farró","05","Sarrià-Sant Gervasi","08006","019","BARCELONA","41.404686","2.143158","428380.486","4584036.774","428472.399","4584237.726","934175079","#","","","","","","","",
"75990104823","Centre Educatiu Lys","#","C","Puig-reig","9","9","27","el Putxet i el Farró","05","Sarrià-Sant Gervasi","08006","019","BARCELONA","41.404686","2.143158","428380.486","4584036.774","428472.399","4584237.726","934189124","Fax","","","","","","","",
"75990105914","Centre Educatiu Mare Alfonsa Cavín","#","Av","Rasos de Peguera","57","57","55","Ciutat Meridiana","08","Nou Barris","08033","019","BARCELONA","41.460486","2.175162","431114.593","4590205.718","431206.529","4590406.728","933532285","Fax","","","","","","","",
"75990105914","Centre Educatiu Mare Alfonsa Cavín","#","Av","Rasos de Peguera","57","57","55","Ciutat Meridiana","08","Nou Barris","08033","019","BARCELONA","41.460486","2.175162","431114.593","4590205.718","431206.529","4590406.728","933594996","#","","","","","","","",
"75990108327","Centre Educatiu Reial Monestir de Santa Isabel","#","C","Vergós","44","52","23","Sarrià","05","Sarrià-Sant Gervasi","08017","019","BARCELONA","41.397132","2.126925","427015.154","4583211.693","427107.055","4583412.637","932032788","#","","","","","","","",
"75990108327","Centre Educatiu Reial Monestir de Santa Isabel","#","C","Rocabertí","12","12","23","Sarrià","05","Sarrià-Sant Gervasi","08017","019","BARCELONA","41.397037","2.125333","426881.996","4583202.576","426973.895","4583403.52","932032788","#","","","","","","","",
"75990108327","Centre Educatiu Reial Monestir de Santa Isabel","#","C","Cardenal Sentmenat","1","5","23","Sarrià","05","Sarrià-Sant Gervasi","08017","019","BARCELONA","41.397283","2.126196","426954.425","4583229.13","427046.325","4583430.074","932032788","#","","","","","","","",
"75990108406","Centre Educatiu Salesià de Sant Josep","#","C","Rocafort","42","42","10","Sant Antoni","02","Eixample","08015","019","BARCELONA","41.37744","2.156006","429424.979","4581001.526","429516.903","4581202.45","934231234","#","","","","","","","",
"75990112093","Llar d'Infants Xalesta","#","C","Gran de la Sagrera","139","139","61","la Sagrera","09","Sant Andreu","08027","019","BARCELONA","41.424828","2.190955","432396.518","4586234.574","432488.467","4586435.548","933406373","#","","","","","","","",
"75990112871","Llar d'Infants Petit Laia","#","C","Neopàtria","119","119","60","Sant Andreu","09","Sant Andreu","08030","019","BARCELONA","41.429391","2.189507","432280.316","4586742.227","432372.264","4586943.206","933 111 351","#","","","","","","","",
"75990118960","Centre Educatiu Montserrat *Cros","#","C","Cros","6","10","18","Sants","03","Sants-Montjuïc","08014","019","BARCELONA","41.374737","2.137971","427913.855","4580716.269","428005.765","4580917.19","934210711","#","","","","","","","",
"75990118960","Centre Educatiu Montserrat *Cros","#","C","Cros","6","10","18","Sants","03","Sants-Montjuïc","08014","019","BARCELONA","41.374737","2.137971","427913.855","4580716.269","428005.765","4580917.19","934210844","Fax","","","","","","","",
"75990128073","Centre Educatiu Urgell","#","C","Comte d'Urgell","133","133","09","la Nova Esquerra de l'Eixample","02","Eixample","08036","019","BARCELONA","41.386064","2.153155","429195.929","4581961.176","429287.85","4582162.109","934539703","Fax","","","","","","","",
"75990128073","Centre Educatiu Urgell","#","C","Comte d'Urgell","133","133","09","la Nova Esquerra de l'Eixample","02","Eixample","08036","019","BARCELONA","41.386064","2.153155","429195.929","4581961.176","429287.85","4582162.109","934530299","#","","","","","","","",
"75990128164","Llar d'Infants El Cuquet","#","C","Comte d'Urgell","169","169","09","la Nova Esquerra de l'Eixample","02","Eixample","08036","019","BARCELONA","41.387889","2.150736","428995.615","4582165.771","429087.534","4582366.706","934549572","#","","","","","","","",
"75990131184","Centre Educatiu Maristes Sants - Les Corts","#","C","Antoni de Capmany","80","80","18","Sants","03","Sants-Montjuïc","08014","019","BARCELONA","41.374902","2.135301","427690.754","4580736.744","427782.662","4580937.666","934908625","#","Edifici Vallespir","","","","","","",
"75990131184","Centre Educatiu Maristes Sants - Les Corts","#","C","Vallespir","160","160","19","les Corts","04","Les Corts","08014","019","BARCELONA","41.382926","2.134879","427664.349","4581627.91","427756.256","4581828.84","934908625","#","Edifici Vallespir","","","","","","",
"75990131184","Centre Educatiu Maristes Sants - Les Corts","#","C","Vallespir","160","160","19","les Corts","04","Les Corts","08014","019","BARCELONA","41.382926","2.134879","427664.349","4581627.91","427756.256","4581828.84","933326900","#","Edifici Antoni Campany (Infantil i Primària)","","","","","","",
"75990131184","Centre Educatiu Maristes Sants - Les Corts","#","C","Antoni de Capmany","80","80","18","Sants","03","Sants-Montjuïc","08014","019","BARCELONA","41.374902","2.135301","427690.754","4580736.744","427782.662","4580937.666","933326900","#","Edifici Antoni Campany (Infantil i Primària)","","","","","","",
"75990131419","Centre Educatiu Solc","#","C","Ardena","36","36","21","Pedralbes","04","Les Corts","08034","019","BARCELONA","41.389959","2.106643","425311.488","4582432.636","425403.373","4582633.573","932061314","Fax","","","","","","","",
"75990131419","Centre Educatiu Solc","#","C","Ardena","36","36","21","Pedralbes","04","Les Corts","08034","019","BARCELONA","41.389959","2.106643","425311.488","4582432.636","425403.373","4582633.573","932061313","#","","","","","","","",
"75990132839","Llar d'Infants El Petit Rossinyol","#","C","Viladomat","86","86","10","Sant Antoni","02","Eixample","08015","019","BARCELONA","41.379044","2.158395","429626.485","4581177.646","429718.41","4581378.572","932289574","#","","","","","","","",
"75990135841","Centre Educatiu Castro de la Peña","#","Rbla","Volart","75","81","35","el Guinardó","07","Horta-Guinardó","08041","019","BARCELONA","41.417036","2.175843","431125.542","4585381.402","431217.48","4585582.368","934368827","#","","","","","","","",
"75990135841","Centre Educatiu Castro de la Peña","#","Rbla","Volart","75","81","35","el Guinardó","07","Horta-Guinardó","08041","019","BARCELONA","41.417036","2.175843","431125.542","4585381.402","431217.48","4585582.368","934368827","Fax","","","","","","","",
"75990161839","Llar d'Infants Begonia","#","C","Entença","188","188","09","la Nova Esquerra de l'Eixample","02","Eixample","08029","019","BARCELONA","41.384483","2.144414","428463.334","4581792.867","428555.248","4581993.799","933221959","#","","","","","","","",
"75990162768","Llar d'Infants El Sol","#","C","Numància","91","93","19","les Corts","04","Les Corts","08029","019","BARCELONA","41.385432","2.136439","427797.581","4581904.881","427889.489","4582105.813","933228154","#","","","","","","","",
"75990170841","St. Peter's School","#","C","Eduard Toldrà","18","18","21","Pedralbes","04","Les Corts","08034","019","BARCELONA","41.38864","2.106013","425257.329","4582286.8","425349.214","4582487.735","932054805","Fax","","","","","","","",
"75990170841","St. Peter's School","#","C","Eduard Toldrà","18","18","21","Pedralbes","04","Les Corts","08034","019","BARCELONA","41.38864","2.106013","425257.329","4582286.8","425349.214","4582487.735","932043612","#","","","","","","","",
"75990171094","Centre Educatiu John Talabot","#","C","Escoles Pies","134","134","25","Sant Gervasi - la Bonanova","05","Sarrià-Sant Gervasi","08017","019","BARCELONA","41.406469","2.125245","426885.247","4584249.754","426977.146","4584450.708","934340542","#","(edifici Quatre Camins)","","","","","","",
"75990171094","Centre Educatiu John Talabot","#","C","Escoles Pies","134","134","25","Sant Gervasi - la Bonanova","05","Sarrià-Sant Gervasi","08017","019","BARCELONA","41.406469","2.125245","426885.247","4584249.754","426977.146","4584450.708","934340542","Fax","(edifici Quatre Camins)","","","","","","",
"75990171094","Centre Educatiu John Talabot","#","C","Escoles Pies","134","134","25","Sant Gervasi - la Bonanova","05","Sarrià-Sant Gervasi","08017","019","BARCELONA","41.406469","2.125245","426885.247","4584249.754","426977.146","4584450.708","932123499","#","","","","","","","",
"75990171094","Centre Educatiu John Talabot","#","C","Escoles Pies","134","134","25","Sant Gervasi - la Bonanova","05","Sarrià-Sant Gervasi","08017","019","BARCELONA","41.406469","2.125245","426885.247","4584249.754","426977.146","4584450.708","934173858","Fax","","","","","","","",
"75990171668","Centre Educatiu Sant Ferran","#","C","Font de Canyelles","98","98","51","Verdun","08","Nou Barris","08042","019","BARCELONA","41.441232","2.174452","431034.964","4588068.777","431126.9","4588269.767","933548991","#","","","","","","","",
"75990171668","Centre Educatiu Sant Ferran","#","C","Joan Riera","46","46","51","Verdun","08","Nou Barris","08042","019","BARCELONA","41.442522","2.175301","431107.235","4588211.271","431199.172","4588412.263","933548991","#","","","","","","","",
"75990171668","Centre Educatiu Sant Ferran","#","C","Joan Riera","46","46","51","Verdun","08","Nou Barris","08042","019","BARCELONA","41.442522","2.175301","431107.235","4588211.271","431199.172","4588412.263","933507392","#","(edifici Font de Canyelles)","","","","","","",
"75990171668","Centre Educatiu Sant Ferran","#","C","Font de Canyelles","98","98","51","Verdun","08","Nou Barris","08042","019","BARCELONA","41.441232","2.174452","431034.964","4588068.777","431126.9","4588269.767","933507392","#","(edifici Font de Canyelles)","","","","","","",
"75990171668","Centre Educatiu Sant Ferran","#","C","Joan Riera","46","46","51","Verdun","08","Nou Barris","08042","019","BARCELONA","41.442522","2.175301","431107.235","4588211.271","431199.172","4588412.263","933531619","Fax","","","","","","","",
"75990171668","Centre Educatiu Sant Ferran","#","C","Font de Canyelles","98","98","51","Verdun","08","Nou Barris","08042","019","BARCELONA","41.441232","2.174452","431034.964","4588068.777","431126.9","4588269.767","933531619","Fax","","","","","","","",
"75990172732","Llar d'Infants Dintell","#","C","Balmes","251","251","26","Sant Gervasi - Galvany","05","Sarrià-Sant Gervasi","08006","019","BARCELONA","41.399867","2.149391","428896.276","4583496.669","428988.194","4583697.616","932179076","#","","","","","","","",
"75990172732","Llar d'Infants Dintell","#","C","Balmes","251","251","26","Sant Gervasi - Galvany","05","Sarrià-Sant Gervasi","08006","019","BARCELONA","41.399867","2.149391","428896.276","4583496.669","428988.194","4583697.616","938445411","Fax","","","","","","","",
"75990177769","Llar d'Infants Omicron","#","C","Joaquín Costa","44","44","01","el Raval","01","Ciutat Vella","08001","019","BARCELONA","41.382835","2.165606","430233.501","4581592.628","430325.432","4581793.558","933179289","#","","","","","","","",
"75990231756","Llar d'Infants Oikia","#","Pg","Manuel Girona","5","7","21","Pedralbes","04","Les Corts","08034","019","BARCELONA","41.389977","2.120308","426453.956","4582422.963","426545.852","4582623.9","932037489","#","","","","","","","",
"75990263456","Centre Educatiu Loreto - Abat Oliba","#","Av","Pearson","22","26","21","Pedralbes","04","Les Corts","08034","019","BARCELONA","41.393636","2.107312","425371.618","4582840.362","425463.504","4583041.302","932040816","Centraleta","","","","","","","",
"75990263456","Centre Educatiu Loreto - Abat Oliba","#","Av","Pearson","22","26","21","Pedralbes","04","Les Corts","08034","019","BARCELONA","41.393636","2.107312","425371.618","4582840.362","425463.504","4583041.302","932039827","Fax","","","","","","","",
"75990274442","Llar d'Infants Mickey Mouse","#","C","Dolors Masferrer i Bosch","24","30","19","les Corts","04","Les Corts","08028","019","BARCELONA","41.385163","2.128242","427111.925","4581881.832","427203.827","4582082.764","933304216","#","","","","","","","",
"75990288102","Llar d'Infants Guinyolet","#","Ptge","Aloi","8","8","63","Navas","09","Sant Andreu","08041","019","BARCELONA","41.417372","2.181055","431561.503","4585414.555","431653.445","4585615.521","934556240","#","","","","","","","",
"75990292021","Centre Educatiu Proa","#","C","Almeria","57","57","16","la Bordeta","03","Sants-Montjuïc","08014","019","BARCELONA","41.371504","2.140037","428083.027","4580355.577","428174.938","4580556.495","934219529","#","","","","","","","",
"75990293942","Llar d'infants Ninu","#","C","Aribau","154","154","08","l'Antiga Esquerra de l'Eixample","02","Eixample","08036","019","BARCELONA","41.392227","2.154501","429315.124","4582644.342","429407.046","4582845.282","932378188","#","","","","","","","",
"75990293944","Llar d'Infants Àgora","#","C","Entença","59","59","09","la Nova Esquerra de l'Eixample","02","Eixample","08015","019","BARCELONA","41.378264","2.152286","429114.769","4581096.015","429206.69","4581296.94","934238476","#","","","","","","","",
"75990324992","Llar d'Infants Nyec","#","C","Rogent","61","61","64","el Camp de l'Arpa del Clot","10","Sant Martí","08026","019","BARCELONA","41.410953","2.182259","431655.337","4584700.966","431747.28","4584901.925","932550110","#","","","","","","","",
"75990333953","Centre Educatiu L'Esperança","#","C","Quito","25","37","58","Baró de Viver","09","Sant Andreu","08030","019","BARCELONA","41.446787","2.201171","433272.658","4588664.466","433364.615","4588865.463","933469052","Fax","","","","","","","",
"75990333953","Centre Educatiu L'Esperança","#","C","Quito","25","37","58","Baró de Viver","09","Sant Andreu","08030","019","BARCELONA","41.446787","2.201171","433272.658","4588664.466","433364.615","4588865.463","933457745","#","","","","","","","",
"75990333957","Cooperativa Centre d'Estudis Montseny SCCL","Centre Educatiu Montseny-Poblenou","C","Pallars","410","410","69","Diagonal Mar i el Front Marítim del Poblenou","10","Sant Martí","08019","019","BARCELONA","41.410639","2.21054","434018.746","4584644.245","434110.711","4584845.205","933072857","#","","","","","","","",
"75990333957","Cooperativa Centre d'Estudis Montseny SCCL","Centre Educatiu Montseny-Poblenou","C","Pallars","410","410","69","Diagonal Mar i el Front Marítim del Poblenou","10","Sant Martí","08019","019","BARCELONA","41.410639","2.21054","434018.746","4584644.245","434110.711","4584845.205","933076503","Fax","","","","","","","",
"75990333963","Centre Educatiu Mare de Déu de Núria","#","C","Mallorca","598","598","64","el Camp de l'Arpa del Clot","10","Sant Martí","08026","019","BARCELONA","41.410844","2.185391","431916.993","4584686.437","432008.938","4584887.396","932651459","Fax","","","","","","","",
"75990333963","Centre Educatiu Mare de Déu de Núria","#","C","Vidiella","15","15","64","el Camp de l'Arpa del Clot","10","Sant Martí","08026","019","BARCELONA","41.412318","2.185664","431941.408","4584849.822","432033.354","4585050.783","932456629","#","","","","","","","",
"75990333963","Centre Educatiu Mare de Déu de Núria","#","C","Mallorca","598","598","64","el Camp de l'Arpa del Clot","10","Sant Martí","08026","019","BARCELONA","41.410844","2.185391","431916.993","4584686.437","432008.938","4584887.396","932456629","#","","","","","","","",
"75990333963","Centre Educatiu Mare de Déu de Núria","#","C","Vidiella","15","15","64","el Camp de l'Arpa del Clot","10","Sant Martí","08026","019","BARCELONA","41.412318","2.185664","431941.408","4584849.822","432033.354","4585050.783","934559564","#","(edifici Vidiella)","","","","","","",
"75990333963","Centre Educatiu Mare de Déu de Núria","#","C","Mallorca","598","598","64","el Camp de l'Arpa del Clot","10","Sant Martí","08026","019","BARCELONA","41.410844","2.185391","431916.993","4584686.437","432008.938","4584887.396","934559564","#","(edifici Vidiella)","","","","","","",
"75990333963","Centre Educatiu Mare de Déu de Núria","#","C","Vidiella","15","15","64","el Camp de l'Arpa del Clot","10","Sant Martí","08026","019","BARCELONA","41.412318","2.185664","431941.408","4584849.822","432033.354","4585050.783","932651459","Fax","","","","","","","",
"75990333972","Centre Educatiu Santa Teresa de Lisieux","#","C","Marquès de Sentmenat","35","37","19","les Corts","04","Les Corts","08014","019","BARCELONA","41.385255","2.135349","427706.274","4581886.152","427798.181","4582087.084","934101153","#","Edifici Infantil","","","","","","",
"75990333972","Centre Educatiu Santa Teresa de Lisieux","#","C","Deu i Mata","65","67","19","les Corts","04","Les Corts","08029","019","BARCELONA","41.388274","2.134841","427667.083","4582221.751","427758.99","4582422.686","934309318","#","Edifici Deu i Mata","","","","","","",
"75990333972","Centre Educatiu Santa Teresa de Lisieux","#","C","Deu i Mata","65","67","19","les Corts","04","Les Corts","08029","019","BARCELONA","41.388274","2.134841","427667.083","4582221.751","427758.99","4582422.686","934101153","#","Edifici Infantil","","","","","","",
"75990333972","Centre Educatiu Santa Teresa de Lisieux","#","C","Marquès de Sentmenat","35","37","19","les Corts","04","Les Corts","08014","019","BARCELONA","41.385255","2.135349","427706.274","4581886.152","427798.181","4582087.084","934309318","#","Edifici Deu i Mata","","","","","","",
"75990333990","Centre Educatiu Santísima Trinidad","#","C","Mare de Déu de Lorda","3","5","57","la Trinitat Vella","09","Sant Andreu","08033","019","BARCELONA","41.45048","2.191216","432444.962","4589082.249","432536.911","4589283.249","932744195","#","","","","","","","",
"75990333990","Centre Educatiu Santísima Trinidad","#","C","Mare de Déu de Lorda","3","5","57","la Trinitat Vella","09","Sant Andreu","08033","019","BARCELONA","41.45048","2.191216","432444.962","4589082.249","432536.911","4589283.249","932744811","Fax","","","","","","","",
"75990333996","Escola Pia Sant Antoni","#","Rda","Sant Pau","72","72","01","el Raval","01","Ciutat Vella","08001","019","BARCELONA","41.378003","2.164366","430124.591","4581057.164","430216.521","4581258.089","934410605","#","","","","","","","",
"75990333996","Escola Pia Sant Antoni","#","C","Salvador","4","4","01","el Raval","01","Ciutat Vella","08001","019","BARCELONA","41.378726","2.164534","430139.433","4581137.276","430231.363","4581338.202","934410605","#","","","","","","","",
"75990334003","Centre Educatiu La Salle Bonanova","#","Pg","Bonanova","8","8","25","Sant Gervasi - la Bonanova","05","Sarrià-Sant Gervasi","08022","019","BARCELONA","41.40624","2.132495","427490.97","4584218.167","427582.875","4584419.121","932540994","Fax","","","","","","","",
"75990334003","Centre Educatiu La Salle Bonanova","#","Pg","Bonanova","8","8","25","Sant Gervasi - la Bonanova","05","Sarrià-Sant Gervasi","08022","019","BARCELONA","41.40624","2.132495","427490.97","4584218.167","427582.875","4584419.121","932540950","#","","","","","","","",
"75990334011","Centre Educatiu Sant Francesc Xavier","#","C","Ricart","20","20","11","el Poble-sec","03","Sants-Montjuïc","08004","019","BARCELONA","41.373965","2.158073","429594.051","4580614.043","429685.976","4580814.964","934239823","#","(edifici c. Ricart)","","","","","","",
"75990334011","Centre Educatiu Sant Francesc Xavier","#","C","Ricart","20","20","11","el Poble-sec","03","Sants-Montjuïc","08004","019","BARCELONA","41.373965","2.158073","429594.051","4580614.043","429685.976","4580814.964","934269252","Fax","","","","","","","",
"75990334011","Centre Educatiu Sant Francesc Xavier","#","C","Ricart","20","20","11","el Poble-sec","03","Sants-Montjuïc","08004","019","BARCELONA","41.373965","2.158073","429594.051","4580614.043","429685.976","4580814.964","934245791","#","","","","","","","",
"75990334011","Centre Educatiu Sant Francesc Xavier","#","C","Bòbila","26","32","11","el Poble-sec","03","Sants-Montjuïc","08004","019","BARCELONA","41.37257","2.158082","429593.287","4580459.077","429685.212","4580659.997","934245791","#","","","","","","","",
"75990334011","Centre Educatiu Sant Francesc Xavier","#","C","Bòbila","26","32","11","el Poble-sec","03","Sants-Montjuïc","08004","019","BARCELONA","41.37257","2.158082","429593.287","4580459.077","429685.212","4580659.997","934269252","Fax","","","","","","","",
"75990334011","Centre Educatiu Sant Francesc Xavier","#","C","Bòbila","26","32","11","el Poble-sec","03","Sants-Montjuïc","08004","019","BARCELONA","41.37257","2.158082","429593.287","4580459.077","429685.212","4580659.997","934239823","#","(edifici c. Ricart)","","","","","","",
"75990334012","Centre Educatiu Sant Marc de Sarrià","#","C","Carrasco i Formiguera","12","12","23","Sarrià","05","Sarrià-Sant Gervasi","08017","019","BARCELONA","41.401813","2.122732","426669.893","4583734.944","426761.79","4583935.893","932038809","#","","","","","","","",
"75990334012","Centre Educatiu Sant Marc de Sarrià","#","C","Margenat","19","19","23","Sarrià","05","Sarrià-Sant Gervasi","08017","019","BARCELONA","41.402344","2.121276","426548.79","4583795.153","426640.686","4583996.103","932800975","Fax","","","","","","","",
"75990334012","Centre Educatiu Sant Marc de Sarrià","#","C","Carrasco i Formiguera","12","12","23","Sarrià","05","Sarrià-Sant Gervasi","08017","019","BARCELONA","41.401813","2.122732","426669.893","4583734.944","426761.79","4583935.893","932800975","Fax","","","","","","","",
"75990334012","Centre Educatiu Sant Marc de Sarrià","#","C","Margenat","19","19","23","Sarrià","05","Sarrià-Sant Gervasi","08017","019","BARCELONA","41.402344","2.121276","426548.79","4583795.153","426640.686","4583996.103","932038809","#","","","","","","","",
"75990334012","Centre Educatiu Sant Marc de Sarrià","#","C","Carrasco i Formiguera","12","12","23","Sarrià","05","Sarrià-Sant Gervasi","08017","019","BARCELONA","41.401813","2.122732","426669.893","4583734.944","426761.79","4583935.893","932800129","#","(edifici Margenat)","","","","","","",
"75990334012","Centre Educatiu Sant Marc de Sarrià","#","C","Margenat","19","19","23","Sarrià","05","Sarrià-Sant Gervasi","08017","019","BARCELONA","41.402344","2.121276","426548.79","4583795.153","426640.686","4583996.103","932800129","#","(edifici Margenat)","","","","","","",
"75990349490","Centre Educatiu Sagrat Cor *Aldana","#","C","Aldana","1","1","10","Sant Antoni","02","Eixample","08015","019","BARCELONA","41.375527","2.165693","430232.91","4580781.237","430324.841","4580982.16","934425004","Fax","","","","","","","",
"75990349490","Centre Educatiu Sagrat Cor *Aldana","#","C","Aldana","1","1","10","Sant Antoni","02","Eixample","08015","019","BARCELONA","41.375527","2.165693","430232.91","4580781.237","430324.841","4580982.16","934410296","#","","","","","","","",
"75990358964","Llar d'Infants Canigó","#","C","Diputació","412","412","05","el Fort Pienc","02","Eixample","08013","019","BARCELONA","41.398998","2.178695","431344.915","4583376.603","431436.856","4583577.55","932455933","#","","","","","","","",
"75990364317","Llar d'Infants Peter Pan","#","C","Berlín","26","32","18","Sants","03","Sants-Montjuïc","08014","019","BARCELONA","41.382836","2.138493","427966.438","4581614.989","428058.348","4581815.919","934396278","#","","","","","","","",
"75990364317","Llar d'Infants Peter Pan","#","C","Berlín","26","32","18","Sants","03","Sants-Montjuïc","08014","019","BARCELONA","41.382836","2.138493","427966.438","4581614.989","428058.348","4581815.919","934176673","Fax","","","","","","","",
"75990364521","Llar d'Infants Lua - Cascavell","#","C","Taquígraf Garriga","166","166","19","les Corts","04","Les Corts","08029","019","BARCELONA","41.39022","2.139968","428097.883","4582433.468","428189.794","4582634.405","934305242","#","","","","","","","",
"75990364530","Centre Educatiu Augusta","#","C","Rector Ubach","60","60","26","Sant Gervasi - Galvany","05","Sarrià-Sant Gervasi","08021","019","BARCELONA","41.396831","2.141617","428243.05","4583166.085","428334.962","4583367.029","932000877","Fax","","","","","","","",
"75990364530","Centre Educatiu Augusta","#","C","Rector Ubach","60","60","26","Sant Gervasi - Galvany","05","Sarrià-Sant Gervasi","08021","019","BARCELONA","41.396831","2.141617","428243.05","4583166.085","428334.962","4583367.029","932092735","#","","","","","","","",
"75990398813","Llar d'Infants Trencapins","#","C","Topazi","22","22","31","la Vila de Gràcia","06","Gràcia","08012","019","BARCELONA","41.405019","2.154943","429365.955","4584064.151","429457.877","4584265.104","932188734","#","","","","","","","",
"75990398822","Centre Educatiu Pérez Iborra","#","C","Consell de Cent","321","323","07","la Dreta de Eixample","02","Eixample","08007","019","BARCELONA","41.38954","2.163436","430059.26","4582338.75","430151.189","4582539.687","934878505","Fax","","","","","","","",
"75990398822","Centre Educatiu Pérez Iborra","#","C","Consell de Cent","321","323","07","la Dreta de Eixample","02","Eixample","08007","019","BARCELONA","41.38954","2.163436","430059.26","4582338.75","430151.189","4582539.687","934880057","#","","","","","","","",
"75990406288","Llar d'Infants Mainada","#","C","Comte de Salvatierra","8","8","26","Sant Gervasi - Galvany","05","Sarrià-Sant Gervasi","08006","019","BARCELONA","41.396374","2.154528","429321.907","4583104.743","429413.829","4583305.687","932374473","#","","","","","","","",
"75990426975","Centre Educatiu Maristes Anna Ravell","#","C","Blasco de Garay","52","52","11","el Poble-sec","03","Sants-Montjuïc","08004","019","BARCELONA","41.372075","2.161737","429898.379","4580401.221","429990.307","4580602.14","934431043","Fax","","","","","","","",
"75990426975","Centre Educatiu Maristes Anna Ravell","#","C","Blasco de Garay","52","52","11","el Poble-sec","03","Sants-Montjuïc","08004","019","BARCELONA","41.372075","2.161737","429898.379","4580401.221","429990.307","4580602.14","934425027","#","","","","","","","",
"75990474082","Llar d'Infants Flor de Neu","#","C","Besòs","21","21","38","la Teixonera","07","Horta-Guinardó","08035","019","BARCELONA","41.421946","2.147554","428766.839","4585949.346","428858.755","4586150.316","934290225","#","","","","","","","",
"75990536906","Llar d'Infants Els Xumets de la Víbria","#","C","Doctor Trueta","222","222","68","el Poblenou","10","Sant Martí","08005","019","BARCELONA","41.398739","2.203843","433446.863","4583328.186","433538.823","4583529.133","646616677","#","","","","","","","",
"75990536906","Llar d'Infants Els Xumets de la Víbria","#","C","Doctor Trueta","222","222","68","el Poblenou","10","Sant Martí","08005","019","BARCELONA","41.398739","2.203843","433446.863","4583328.186","433538.823","4583529.133","932527948","#","","","","","","","",
"75990540024","Centre Educatiu Piaget","#","C","Llobregós","194","194","37","el Carmel","07","Horta-Guinardó","08032","019","BARCELONA","41.422415","2.152496","429180.317","4585997.354","429272.237","4586198.325","934296102","#","","","","","","","",
"75990540024","Centre Educatiu Piaget","#","C","Llobregós","194","194","37","el Carmel","07","Horta-Guinardó","08032","019","BARCELONA","41.422415","2.152496","429180.317","4585997.354","429272.237","4586198.325","934296102","Fax","","","","","","","",
"75990671458","Llar d'Infants Gaudí - Guinardó","#","C","Castillejos","365","365","33","el Baix Guinardó","07","Horta-Guinardó","08025","019","BARCELONA","41.411139","2.1721","430806.488","4584729.701","430898.423","4584930.66","934560953","#","","","","","","","",
"92086000037","Escola Bressol Municipal Niu d'Infants","#","C","Pedrera del Mussol","10","14","13","la Marina de Port","03","Sants-Montjuïc","08038","019","BARCELONA","41.360793","2.147589","428702.897","4579160.195","428794.814","4579361.102","933312565","#","","","","","","","",
"92086000075","Escola Bressol Municipal Bellmunt","#","C","Font Florida","93","93","14","la Font de la Guatlla","03","Sants-Montjuïc","08004","019","BARCELONA","41.366941","2.14273","428303.232","4579846.793","428395.145","4580047.706","933325945","#","","","","","","","",
"92086000464","Escola Bressol Municipal Cadí","#","C","Om","11","11","01","el Raval","01","Ciutat Vella","08001","019","BARCELONA","41.376134","2.172651","430815.403","4580843.027","430907.339","4581043.95","934424844","#","","","","","","","",
"92086000465","Escola Bressol Municipal Mont Tàber","#","C","Santa Elena","4","4","01","el Raval","01","Ciutat Vella","08001","019","BARCELONA","41.377339","2.168486","430468.426","4580980.117","430560.359","4581181.042","934417536","#","","","","","","","",
"92086002108","Llar d'Infants El Pomer","#","C","Can Bruixa","18","18","19","les Corts","04","Les Corts","08028","019","BARCELONA","41.383768","2.13164","427394.495","4581724.087","427486.4","4581925.018","934901891","#","","","","","","","",
"92086002131","Llar d'Infants Dracs","#","C","Vallespir","165","165","19","les Corts","04","Les Corts","08014","019","BARCELONA","41.383771","2.134074","427597.968","4581722.471","427689.874","4581923.402","934902653","#","","","","","","","",
"92086002874","Llar d'Infants Xenius","#","C","Muntaner","476","476","26","Sant Gervasi - Galvany","05","Sarrià-Sant Gervasi","08006","019","BARCELONA","41.402601","2.13846","427985.537","4583809.229","428077.446","4584010.179","932010379","#","","","","","","","",
"92086002958","Llar d'Infants Balmespi","#","C","Balmes","252","252","26","Sant Gervasi - Galvany","05","Sarrià-Sant Gervasi","08006","019","BARCELONA","41.399836","2.149836","428933.428","4583492.86","429025.346","4583693.807","932189472","#","","","","","","","",
"92086003331","Llar d'Infants Tabalet","#","C","Providència","119","119","32","el Camp d'en Grassot i Gràcia Nova","06","Gràcia","08024","019","BARCELONA","41.409392","2.161698","429935.272","4584544.156","430027.199","4584745.113","932196941","#","","","","","","","",
"92086003392","Parvulari Sant Marc *Pere Sala","#","C","Pere Sala","3","3","34","Can Baró","07","Horta-Guinardó","08024","019","BARCELONA","41.415362","2.160098","429807.972","4585208.25","429899.898","4585409.214","932842220","#","","","","","","","",
"92086003497","Escola Bressol Municipal Cargol","#","C","Mossèn Josep Bundó","6","6","36","la Font d'en Fargues","07","Horta-Guinardó","08032","019","BARCELONA","41.427081","2.167181","430412.377","4586503.565","430504.308","4586704.541","934293641","#","","","","","","","",
"92086003645","Llar d'Infants Ninets","#","C","València","218","220","08","l'Antiga Esquerra de l'Eixample","02","Eixample","08011","019","BARCELONA","41.389561","2.159323","429715.392","4582344.432","429807.318","4582545.369","933233131","#","","","","","","","",
"92086003672","Llar d'Infants La Baldufa","#","C","Còrsega","242","242","08","l'Antiga Esquerra de l'Eixample","02","Eixample","08036","019","BARCELONA","41.392998","2.154834","429343.748","4582729.617","429435.67","4582930.557","932182363","#","","","","","","","",
"92086004209","Llar d'Infants Petit Sant Marc","#","C","Bruc","87","87","07","la Dreta de Eixample","02","Eixample","08009","019","BARCELONA","41.395234","2.168195","430463.208","4582967.116","430555.141","4583168.059","934574727","#","","","","","","","",
"92086004353","Llar d'Infants Milton","#","C","Bailèn","212","212","32","el Camp d'en Grassot i Gràcia Nova","06","Gràcia","08037","019","BARCELONA","41.402208","2.163876","430109.591","4583744.826","430201.52","4583945.776","932071670","#","","","","","","","",
"92086004636","Llar d'Infants Espai Giravolt","#","C","Gabriel y Galán","18","18","65","el Clot","10","Sant Martí","08026","019","BARCELONA","41.411738","2.188256","432157.404","4584783.378","432249.352","4584984.338","620993870","#","","","","","","","",
"92086004797","Llar d'Infants Kuky's","#","Pl","Garrigó","1","3","44","Vilapicina i la Torre Llobeta","08","Nou Barris","08016","019","BARCELONA","41.42897","2.180671","431541.588","4586702.438","431633.529","4586903.416","933512607","#","","","","","","","",
"92086004910","Llar d'Infants Splait","#","C","Agustí i Milà","61","61","60","Sant Andreu","09","Sant Andreu","08030","019","BARCELONA","41.438461","2.186991","432079.494","4587751.227","432171.44","4587952.215","933450244","#","","","","","","","",
"92086005023","Llar d'Infants Pumbi","#","C","Sant Antoni Maria Claret","267","267","63","Navas","09","Sant Andreu","08041","019","BARCELONA","41.417504","2.182558","431687.189","4585428.051","431779.132","4585629.017","933527120","#","","","","","","","",
"92086005042","Llar d'Infants Blau","#","C","Espronceda","242","242","72","Sant Martí de Provençals","10","Sant Martí","08018","019","BARCELONA","41.412658","2.195167","432735.988","4584880.195","432827.941","4585081.156","933076804","#","","","","","","","",
"92086005249","Llar d'Infants Major de Sarrià","#","C","Major de Sarrià","121","121","23","Sarrià","05","Sarrià-Sant Gervasi","08017","019","BARCELONA","41.400775","2.120548","426486.169","4583621.523","426578.065","4583822.471","932050029","#","","","","","","","",
"92086005327","Llar d'Infants María Raventós","#","C","Plantada","1","5","23","Sarrià","05","Sarrià-Sant Gervasi","08017","019","BARCELONA","41.406794","2.12072","426507.392","4584289.648","426599.288","4584490.602","934173964","#","","","","","","","",
"92086005583","Llar d'Infants Solcar","#","C","Agudells","2","2","36","la Font d'en Fargues","07","Horta-Guinardó","08032","019","BARCELONA","41.424798","2.159721","429786.562","4586256.109","429878.487","4586457.082","645853401","#","","","","","","","",
"92086005761","Escola Bressol Municipal Nenes i Nens","#","C","Ignasi Agustí","4","4","49","Canyelles","08","Nou Barris","08042","019","BARCELONA","41.444302","2.167586","430464.653","4588415.029","430556.584","4588616.022","934273167","#","","","","","","","",
"92086005792","Escola Bressol Municipal L'Argimon","#","C","Artesania","37","37","48","la Guineueta","08","Nou Barris","08042","019","BARCELONA","41.441381","2.172812","430898.067","4588086.588","430990.002","4588287.579","933505748","#","","","","","","","",
"92086007095","LLar d'Infants El Vuit","#","Via","Trajana","24","24","73","la Verneda i la Pau","10","Sant Martí","08020","019","BARCELONA","41.427399","2.205762","433636.476","4586508.548","433728.437","4586709.525","933052206","#","","","","","","","",
"92086007096","Escola Bressol Municipal Trinitat Nova","#","C","Fosca","12","12","53","la Trinitat Nova","08","Nou Barris","08033","019","BARCELONA","41.448125","2.183874","431829.283","4588826.532","431921.226","4589027.53","933595271","#","","","","","","","",
"92086007097","Escola Bressol Municipal Albí","#","C","Bernat Bransi","3","9","37","el Carmel","07","Horta-Guinardó","08032","019","BARCELONA","41.424846","2.15475","429371.268","4586265.401","429463.189","4586466.374","934294199","#","","","","","","","",
"92086007098","Escola Bressol Municipal La Mar","#","C","Andrea Doria","40","40","03","la Barceloneta","01","Ciutat Vella","08003","019","BARCELONA","41.38078","2.192835","432508.1","4581342.893","432600.052","4581543.822","932215124","#","","","","","","","",
"92086007099","Escola Bressol Municipal L'Esquirol","#","C","Noguera Pallaresa","32","32","16","la Bordeta","03","Sants-Montjuïc","08014","019","BARCELONA","41.372137","2.139368","428027.789","4580426.384","428119.7","4580627.303","933329950","#","","","","","","","",
"92086007100","Escola Bressol Municipal Esquitx","#","C","Selva de Mar","215","215","72","Sant Martí de Provençals","10","Sant Martí","08020","019","BARCELONA","41.416655","2.19859","433026.11","4585321.232","433118.065","4585522.198","932565763","#","","","","","","","",
"92086007101","Escola Bressol Municipal Guinbó","#","C","Olzinelles","73","73","16","la Bordeta","03","Sants-Montjuïc","08014","019","BARCELONA","41.371535","2.137287","427853.161","4580361.306","427945.07","4580562.224","933322341","#","","","","","","","",
"92086007102","Escola Bressol Municipal Llar d'Infants","#","C","Rectoria","31","31","43","Horta","07","Horta-Guinardó","08031","019","BARCELONA","41.434102","2.161371","429934.439","4587287.621","430026.365","4587488.604","934276870","#","","","","","","","",
"92086007103","Escola Bressol Municipal La Muntanya","#","C","Sant Feliu de Codines","4","4","54","Torre Baró","08","Nou Barris","08033","019","BARCELONA","41.4606","2.180288","431542.861","4590214.374","431634.801","4590415.384","933507938","#","","","","","","","",
"92086007104","Escola Bressol Municipal L'Arboç","#","Pg","Vall d'Hebron","171","171","40","Montbau","07","Horta-Guinardó","08035","019","BARCELONA","41.435759","2.147171","428749.909","4587483.23","428841.824","4587684.214","934281794","#","","","","","","","",
"92086007106","Escola Bressol Municipal El Palomar","#","C","Malats","45","45","60","Sant Andreu","09","Sant Andreu","08030","019","BARCELONA","41.43638","2.187166","432092.017","4587520.05","432183.963","4587721.036","933115756","#","","","","","","","",
"92086007107","Escola Bressol Municipal Ralet","#","C","Joaquim Valls","10","10","52","la Prosperitat","08","Nou Barris","08016","019","BARCELONA","41.442555","2.182941","431745.497","4588208.836","431837.44","4588409.828","933597793","#","","","","","","","",
"92086007108","Escola Bressol Municipal Tris-Tras","#","C","Llobregós","109","109","37","el Carmel","07","Horta-Guinardó","08032","019","BARCELONA","41.424817","2.157358","429589.178","4586260.06","429681.101","4586461.033","933588560","#","","","","","","","",
"92086007596","Centre Educatiu Thau","#","Av","Esplugues","49","49","21","Pedralbes","04","Les Corts","08034","019","BARCELONA","41.38764","2.105297","425196.269","4582176.348","425288.153","4582377.282","932030154","#","","","","","","","",
"92086007703","Centre Educatiu Mare de Déu del Coll","#","C","Santuari","28","28","29","el Coll","06","Gràcia","08032","019","BARCELONA","41.420162","2.151118","429062.702","4585748.378","429154.621","4585949.346","932858001","Fax","","","","","","","",
"92086007703","Centre Educatiu Mare de Déu del Coll","#","C","Santuari","28","28","29","el Coll","06","Gràcia","08032","019","BARCELONA","41.420162","2.151118","429062.702","4585748.378","429154.621","4585949.346","932846543","#","","","","","","","",
"92086007970","Centre Educatiu Santa Dorotea","#","Pg","Sant Joan Bosco","24","24","24","les Tres Torres","05","Sarrià-Sant Gervasi","08017","019","BARCELONA","41.393505","2.12908","427191.283","4582807.247","427283.185","4583008.188","932032892","#","","","","","","","",
"92086008029","Centre Educatiu Maristes La Immaculada","#","C","València","370","370","07","la Dreta de Eixample","02","Eixample","08009","019","BARCELONA","41.398639","2.172205","430801.985","4583341.937","430893.921","4583542.884","934583597","Fax","","","","","","","",
"92086008029","Centre Educatiu Maristes La Immaculada","#","C","València","370","370","07","la Dreta de Eixample","02","Eixample","08009","019","BARCELONA","41.398639","2.172205","430801.985","4583341.937","430893.921","4583542.884","934582904","#","","","","","","","",
"92086008434","Centre Educatiu Pare Manyanet","#","Trav","Corts","331","331","19","les Corts","04","Les Corts","08029","019","BARCELONA","41.38873","2.138142","427943.574","4582269.563","428035.483","4582470.499","933216108","Fax","","","","","","","",
"92086008434","Centre Educatiu Pare Manyanet","#","Trav","Corts","331","331","19","les Corts","04","Les Corts","08029","019","BARCELONA","41.38873","2.138142","427943.574","4582269.563","428035.483","4582470.499","934396700","#","","","","","","","",
"92086014533","Escola Bressol Municipal La Fontana","#","C","Gran de Gràcia","123","123","31","la Vila de Gràcia","06","Gràcia","08012","019","BARCELONA","41.401638","2.153264","429221.897","4583690.183","429313.818","4583891.132","932186456","#","","","","","","","",
"92086015197","Llar d'Infants Esclop","#","Pg","Sant Joan","31","31","07","la Dreta de Eixample","02","Eixample","08010","019","BARCELONA","41.393416","2.177115","431206.96","4582758.081","431298.899","4582959.022","932655255","#","","","","","","","",
"92086023424","Llar d'Infants Ratolinet","#","C","Alcolea","15","17","18","Sants","03","Sants-Montjuïc","08014","019","BARCELONA","41.375843","2.136825","427819.273","4580839.982","427911.182","4581040.905","934311848","#","","","","","","","",
"92086023428","Llar d'Infants Drac Xic","#","Ptge","Alió","38","38","32","el Camp d'en Grassot i Gràcia Nova","06","Gràcia","08037","019","BARCELONA","41.403653","2.165251","430226.03","4583904.094","430317.96","4584105.046","934583844","#","","","","","","","",
"92086023429","Llar d'infants El Nieró","#","Ctra","Bordeta","86","86","15","Hostafrancs","03","Sants-Montjuïc","08014","019","BARCELONA","41.372888","2.14269","428306.472","4580507.043","428398.385","4580707.963","934316889","#","","","","","","","",
"92086023431","Llar d'Infants La Lluna","#","C","Borgonya","6","8","48","la Guineueta","08","Nou Barris","08042","019","BARCELONA","41.435254","2.169901","430648.391","4587408.688","430740.324","4587609.672","933536191","#","","","","","","","",
"92086023486","Llar d'Infants Brusi","#","C","Brusi","39","39","26","Sant Gervasi - Galvany","05","Sarrià-Sant Gervasi","08006","019","BARCELONA","41.401121","2.14552","428574.018","4583639.105","428665.933","4583840.054","932093145","#","","","","","","","",
"92086023487","Llar d'Infants El Llapis","#","C","Bordeus","9","9","19","les Corts","04","Les Corts","08029","019","BARCELONA","41.388439","2.14158","428230.697","4582234.402","428322.609","4582435.338","933218871","#","","","","","","","",
"92086023493","Llar d'Infants Bon Sol","#","C","Aribau","175","175","08","l'Antiga Esquerra de l'Eixample","02","Eixample","08036","019","BARCELONA","41.393735","2.152139","429119.26","4582813.663","429211.18","4583014.604","934305594","#","","","","","","","",
"92086023497","Escola Bressol Municipal Puigmal","#","C","Mònec","2","2","04","Sant Pere, Santa Caterina i la Ribera","01","Ciutat Vella","08003","019","BARCELONA","41.388241","2.178195","431291.804","4582182.743","431383.744","4582383.679","933101897","#","","","","","","","",
"92086023500","Llar d'Infants Grans Somnis","#","C","Consell de Cent","344","344","07","la Dreta de Eixample","02","Eixample","08009","019","BARCELONA","41.393512","2.169098","430536.803","4582775.151","430628.736","4582976.092","934882242","#","","","","","","","",
"92086023501","Llar d'Infants Sol Solet","#","G.V.","Corts Catalanes","741","741","05","el Fort Pienc","02","Eixample","08013","019","BARCELONA","41.398909","2.180455","431491.917","4583365.338","431583.859","4583566.285","932650382","#","","","","","","","",
"92086023505","Llar d'Infants Tramvia Blau","#","G.V.","Corts Catalanes","515","515","09","la Nova Esquerra de l'Eixample","02","Eixample","08015","019","BARCELONA","41.381867","2.157767","429576.957","4581491.472","429668.882","4581692.401","933233477","#","","","","","","","",
"92086023521","Llar d'Infants Teddy","#","C","Dos de Maig","222","222","64","el Camp de l'Arpa del Clot","10","Sant Martí","08013","019","BARCELONA","41.406754","2.18268","431686.136","4584234.503","431778.079","4584435.458","932457271","#","","","","","","","",
"92086023527","Escola Bressol Municipal Forestier","#","C","Segons Jocs Mediterranis","2","2","11","el Poble-sec","03","Sants-Montjuïc","08004","019","BARCELONA","41.371029","2.155177","429348.658","4580290.428","429440.581","4580491.346","934230733","#","","","","","","","",
"92086023571","Llar d'Infants - Parvulari Rosetó","#","C","Mallorca","337","337","07","la Dreta de Eixample","02","Eixample","08037","019","BARCELONA","41.399813","2.170298","430643.836","4583473.706","430735.77","4583674.654","934570302","#","","","","","","","",
"92086023573","Llar d'Infants Milton-2","#","C","Mallorca","578","578","64","el Camp de l'Arpa del Clot","10","Sant Martí","08026","019","BARCELONA","41.410073","2.184364","431830.405","4584601.625","431922.35","4584802.584","932457418","#","","","","","","","",
"92086023576","Llar d'Infants L'Hortet","#","C","Mare de Déu dels Àngels","3","5","38","la Teixonera","07","Horta-Guinardó","08035","019","BARCELONA","41.420349","2.14414","428479.787","4585774.875","428571.7","4585975.843","934174791","#","","","","","","","",
"92086023579","Llar d'Infants Mafalda III","#","C","Mas Casanovas","8","8","33","el Baix Guinardó","07","Horta-Guinardó","08025","019","BARCELONA","41.411351","2.168866","430536.391","4584755.84","430628.324","4584956.8","934363687","#","","","","","","","",
"92086023607","Parvulari Betlem","#","Av","Mistral","20","20","10","Sant Antoni","02","Eixample","08015","019","BARCELONA","41.377212","2.157776","429572.72","4580974.719","429664.645","4581175.643","934244174","#","","","","","","","",
"92086023609","Llar d'Infants El Cigronet","#","C","Muntaner","43","43","08","l'Antiga Esquerra de l'Eixample","02","Eixample","08011","019","BARCELONA","41.38581","2.160367","429798.622","4581927.115","429890.549","4582128.048","933234606","#","","","","","","","",
"92086023613","Llar d'Infants Petit Món de les Corts","#","C","Numància","101","101","19","les Corts","04","Les Corts","08029","019","BARCELONA","41.385846","2.136009","427762.106","4581951.214","427854.014","4582152.147","933222477","#","","","","","","","",
"92086023624","Llar d'Infants Cascavell","#","C","Perpinyà","22","28","70","el Besòs i el Maresme","10","Sant Martí","08019","019","BARCELONA","41.419561","2.214691","434374.633","4585631.57","434466.601","4585832.539","933053421","#","","","","","","","",
"92086023631","Llar d'Infants La Quitxalla de Gràcia","#","C","Ramón y Cajal","82","82","31","la Vila de Gràcia","06","Gràcia","08012","019","BARCELONA","41.403619","2.160373","429818.299","4583904.278","429910.225","4584105.23","932137785","#","","","","","","","",
"92086023670","Llar d'Infants El Parc","#","C","Roger de Flor","3","3","04","Sant Pere, Santa Caterina i la Ribera","01","Ciutat Vella","08018","019","BARCELONA","41.390007","2.184119","431788.889","4582374.092","431880.834","4582575.03","933007074","#","","","","","","","",
"92086023750","Llar d'Infants Ratolí","#","C","Sicília","380","380","32","el Camp d'en Grassot i Gràcia Nova","06","Gràcia","08025","019","BARCELONA","41.405531","2.168513","430500.738","4584109.935","430592.671","4584310.889","934578127","#","","","","","","","",
"92086023759","Llar d'Infants I-Beth","#","C","Aragó","47","47","09","la Nova Esquerra de l'Eixample","02","Eixample","08015","019","BARCELONA","41.380143","2.148698","428816.817","4581307.576","428908.735","4581508.503","932267260","#","","","","","","","",
"92086024337","Llar d'Infants El Mar","#","C","Castellbell","1","3","60","Sant Andreu","09","Sant Andreu","08030","019","BARCELONA","41.432146","2.185636","431959.764","4587051.15","432051.709","4587252.131","933467901","#","","","","","","","",
"92086033565","Escola Bressol Municipal El Vent","#","C","Miguel Hernández","20","20","49","Canyelles","08","Nou Barris","08042","019","BARCELONA","41.442961","2.165962","430327.537","4588267.498","430419.467","4588468.49","934273745","#","","","","","","","",
"92086034361","Llar d'Infants Xumets","#","C","Energia","10","10","13","la Marina de Port","03","Sants-Montjuïc","08038","019","BARCELONA","41.357945","2.137099","427822.384","4578852.7","427914.293","4579053.604","934317672","#","","","","","","","",
"92086036230","Llar d'Infants Pumby","#","C","Valladolid","20","20","18","Sants","03","Sants-Montjuïc","08014","019","BARCELONA","41.377785","2.136506","427794.759","4581055.871","427886.667","4581256.796","933303054","#","","","","","","","",
"92086036833","Escola Bressol Municipal Barrufets","#","C","Marina","354","354","06","la Sagrada Família","02","Eixample","08025","019","BARCELONA","41.407546","2.170687","430684.554","4584331.973","430776.488","4584532.929","934551042","#","","","","","","","",
"92086036837","Escola Bressol Municipal Xiroi","#","C","Francesc Pedra","1","3","19","les Corts","04","Les Corts","08014","019","BARCELONA","41.387821","2.132077","427435.555","4582173.706","427527.46","4582374.641","934101620","#","","","","","","","",
"92086036838","Escola Bressol Municipal Xarlot","#","C","Pantà de Tremp","66","66","37","el Carmel","07","Horta-Guinardó","08032","019","BARCELONA","41.426718","2.152951","429223.019","4586474.72","429314.939","4586675.695","933589300","#","","","","","","","",
"92091083756","Llar d'Infants Romany","#","Ptge","Coello","9","9","61","la Sagrera","09","Sant Andreu","08027","019","BARCELONA","41.421998","2.187837","432133.066","4585922.761","432225.013","4586123.732","933490712","#","","","","","","","",
"92168153014","Centre Educatiu Verns","#","C","Cantàbria","31","31","72","Sant Martí de Provençals","10","Sant Martí","08020","019","BARCELONA","41.420091","2.200618","433199.123","4585701.193","433291.08","4585902.162","933135051","#","","","","","","","",
"92168164392","Centre Educatiu Adela de Trenquelleón","#","Rbla","Guipúscoa","24","24","72","Sant Martí de Provençals","10","Sant Martí","08018","019","BARCELONA","41.413929","2.194712","432699.209","4585021.628","432791.162","4585222.591","932662136","Fax","","","","","","","",
"92168164392","Centre Educatiu Adela de Trenquelleón","#","Rbla","Guipúscoa","24","24","72","Sant Martí de Provençals","10","Sant Martí","08018","019","BARCELONA","41.413929","2.194712","432699.209","4585021.628","432791.162","4585222.591","933074850","#","","","","","","","",
"92168164412","Escola Alexandre Galí","#","Pg","Marítim de la Barceloneta","11","11","03","la Barceloneta","01","Ciutat Vella","08003","019","BARCELONA","41.381256","2.193352","432551.796","4581395.344","432643.748","4581596.273","933106444","#","","","","","","","",
"92168164414","Centre Educatiu Alfageme","#","Pg","Zona Franca","198","198","13","la Marina de Port","03","Sants-Montjuïc","08038","019","BARCELONA","41.361443","2.138951","427981.13","4579239.569","428073.041","4579440.477","933323246","#","","","","","","","",
"92168164435","Escola Baixeras","#","C","Salvador Aulet","1","1","02","el Barri Gòtic","01","Ciutat Vella","08002","019","BARCELONA","41.38287","2.179808","431420.978","4581585.204","431512.92","4581786.134","933105295","#","","","","","","","",
"92168164435","Escola Baixeras","#","C","Ataülf","12","12","02","el Barri Gòtic","01","Ciutat Vella","08002","019","BARCELONA","41.381059","2.17898","431349.892","4581384.846","431441.833","4581585.775","933150454","#","(edifici Ataülf)","","","","","","",
"92168164435","Escola Baixeras","#","C","Salvador Aulet","1","1","02","el Barri Gòtic","01","Ciutat Vella","08002","019","BARCELONA","41.38287","2.179808","431420.978","4581585.204","431512.92","4581786.134","933150454","#","(edifici Ataülf)","","","","","","",
"92168164435","Escola Baixeras","#","C","Ataülf","12","12","02","el Barri Gòtic","01","Ciutat Vella","08002","019","BARCELONA","41.381059","2.17898","431349.892","4581384.846","431441.833","4581585.775","933105295","#","","","","","","","",
"92168164438","Escola Àngels Garriga","#","C","Gallecs","22","22","36","la Font d'en Fargues","07","Horta-Guinardó","08032","019","BARCELONA","41.425979","2.167712","430455.561","4586380.784","430547.492","4586581.759","934205801","Fax","","","","","","","",
"92168164438","Escola Àngels Garriga","#","C","Gallecs","22","22","36","la Font d'en Fargues","07","Horta-Guinardó","08032","019","BARCELONA","41.425979","2.167712","430455.561","4586380.784","430547.492","4586581.759","934205801","#","","","","","","","",
"92168164443","Escola Antoni Balmanya","#","C","Freser","101","101","64","el Camp de l'Arpa del Clot","10","Sant Martí","08041","019","BARCELONA","41.416438","2.182821","431708.116","4585309.472","431800.059","4585510.437","934566804","Fax","","","","","","","",
"92168164443","Escola Antoni Balmanya","#","C","Freser","101","101","64","el Camp de l'Arpa del Clot","10","Sant Martí","08041","019","BARCELONA","41.416438","2.182821","431708.116","4585309.472","431800.059","4585510.437","934566804","#","","","","","","","",
"92168164444","Escola Antoni Brusi","#","C","Sardenya","33","35","67","la Vila Olímpica del Poblenou","10","Sant Martí","08005","019","BARCELONA","41.391032","2.189552","432244.208","4582483.613","432336.157","4582684.552","932211298","#","","","","","","","",
"92168164444","Escola Antoni Brusi","#","C","Sardenya","33","35","67","la Vila Olímpica del Poblenou","10","Sant Martí","08005","019","BARCELONA","41.391032","2.189552","432244.208","4582483.613","432336.157","4582684.552","932211298","Fax","","","","","","","",
"92168164454","Escola Arc Iris","#","C","Arc de Sant Martí","78","78","36","la Font d'en Fargues","07","Horta-Guinardó","08032","019","BARCELONA","41.42527","2.171457","430767.766","4586299.069","430859.7","4586500.043","934362617","#","","","","","","","",
"92168164454","Escola Arc Iris","#","C","Arc de Sant Martí","78","78","36","la Font d'en Fargues","07","Horta-Guinardó","08032","019","BARCELONA","41.42527","2.171457","430767.766","4586299.069","430859.7","4586500.043","934364815","Fax","","","","","","","",
"92168164462","Llar d'Infants Arlequín","#","C","Balcells","41","41","32","el Camp d'en Grassot i Gràcia Nova","06","Gràcia","08024","019","BARCELONA","41.411077","2.160891","429869.619","4584731.812","429961.546","4584932.771","932145089","#","","","","","","","",
"92168164462","Llar d'Infants Arlequín","#","C","Balcells","41","41","32","el Camp d'en Grassot i Gràcia Nova","06","Gràcia","08024","019","BARCELONA","41.411077","2.160891","429869.619","4584731.812","429961.546","4584932.771","932845089","#","","","","","","","",
"92168164465","Escola Josep Maria Jujol","#","C","Riera de Sant Miquel","39","45","31","la Vila de Gràcia","06","Gràcia","08006","019","BARCELONA","41.398215","2.155906","429439.013","4583307.926","429530.936","4583508.872","932180890","Fax","","","","","","","",
"92168164465","Escola Josep Maria Jujol","#","C","Riera de Sant Miquel","39","45","31","la Vila de Gràcia","06","Gràcia","08006","019","BARCELONA","41.398215","2.155906","429439.013","4583307.926","429530.936","4583508.872","932180890","#","","","","","","","",
"92168164469","Centre Educatiu Arrels","#","C","Cardenal Tedeschini","76","80","62","el Congrés i els Indians","09","Sant Andreu","08027","019","BARCELONA","41.426677","2.181046","431570.458","4586447.58","431662.4","4586648.556","933524757","Fax","","","","","","","",
"92168164469","Centre Educatiu Arrels","#","C","Cardenal Tedeschini","76","80","62","el Congrés i els Indians","09","Sant Andreu","08027","019","BARCELONA","41.426677","2.181046","431570.458","4586447.58","431662.4","4586648.556","933524454","#","","","","","","","",
"92168164474","Centre Educatiu Acis - Artur Martorell","#","Pl","Can Baró","3","3","34","Can Baró","07","Horta-Guinardó","08024","019","BARCELONA","41.416562","2.162104","429976.851","4585339.825","430068.778","4585540.79","932847299","Fax","","","","","","","",
"92168164474","Centre Educatiu Acis - Artur Martorell","#","Pl","Can Baró","3","3","34","Can Baró","07","Horta-Guinardó","08024","019","BARCELONA","41.416562","2.162104","429976.851","4585339.825","430068.778","4585540.79","932842418","#","","","","","","","",
"92168164486","Escola Ausiàs March","#","Pl","Comas","9","10","19","les Corts","04","Les Corts","08028","019","BARCELONA","41.384879","2.130233","427278.067","4581848.674","427369.97","4582049.606","933307960","#","","","","","","","",
"92168164486","Escola Ausiàs March","#","Pl","Comas","9","10","19","les Corts","04","Les Corts","08028","019","BARCELONA","41.384879","2.130233","427278.067","4581848.674","427369.97","4582049.606","933307960","Fax","","","","","","","",
"92168164500","Escola Baldiri Reixac","#","C","Olot","1","13","30","la Salut","06","Gràcia","08024","019","BARCELONA","41.413509","2.153135","429224.029","4585008.121","429315.949","4585209.083","932130484","#","","","","","","","",
"92168164500","Escola Baldiri Reixac","#","C","Olot","1","13","30","la Salut","06","Gràcia","08024","019","BARCELONA","41.413509","2.153135","429224.029","4585008.121","429315.949","4585209.083","932130484","Fax","","","","","","","",
"92168164507","Escola Baloo","#","C","Harmonia","37","37","40","Montbau","07","Horta-Guinardó","08035","019","BARCELONA","41.431157","2.139374","428093.431","4586978.755","428185.34","4587179.734","934282861","#","","","","","","","",
"92168164507","Escola Baloo","#","C","Harmonia","37","37","40","Montbau","07","Horta-Guinardó","08035","019","BARCELONA","41.431157","2.139374","428093.431","4586978.755","428185.34","4587179.734","934282861","Fax","","","","","","","",
"92168164513","Escola Barcelona","#","C","Joan Güell","126","126","19","les Corts","04","Les Corts","08028","019","BARCELONA","41.381944","2.132062","427427.746","4581521.321","427519.651","4581722.25","933300858","#","","","","","","","",
"92168164513","Escola Barcelona","#","C","Joan Güell","126","126","19","les Corts","04","Les Corts","08028","019","BARCELONA","41.381944","2.132062","427427.746","4581521.321","427519.651","4581722.25","933300650","Fax","","","","","","","",
"92168164513","Escola Barcelona","#","C","Joan Güell","126","126","19","les Corts","04","Les Corts","08028","019","BARCELONA","41.381944","2.132062","427427.746","4581521.321","427519.651","4581722.25","933300858","Fax","","","","","","","",
"92168164513","Escola Barcelona","#","C","Joan Güell","126","126","19","les Corts","04","Les Corts","08028","019","BARCELONA","41.381944","2.132062","427427.746","4581521.321","427519.651","4581722.25","933300650","#","","","","","","","",
"92168164518","Escola Bàrkeno","#","C","Cisell","15","15","13","la Marina de Port","03","Sants-Montjuïc","08038","019","BARCELONA","41.355474","2.145239","428500.562","4578571.638","428592.478","4578772.54","932230829","#","","","","","","","",
"92168164518","Escola Bàrkeno","#","C","Cisell","15","15","13","la Marina de Port","03","Sants-Montjuïc","08038","019","BARCELONA","41.355474","2.145239","428500.562","4578571.638","428592.478","4578772.54","932232638","Fax","","","","","","","",
"92168164520","Escola Baró de Viver","#","C","Tucumán","1","1","58","Baró de Viver","09","Sant Andreu","08030","019","BARCELONA","41.445631","2.200157","433186.817","4588536.937","433278.773","4588737.932","933455613","#","","","","","","","",
"92168164520","Escola Baró de Viver","#","C","Tucumán","1","1","58","Baró de Viver","09","Sant Andreu","08030","019","BARCELONA","41.445631","2.200157","433186.817","4588536.937","433278.773","4588737.932","933455613","Fax","","","","","","","",
"92168164521","Escola Barrufet","#","Ptge","Vapor Vell","7","7","18","Sants","03","Sants-Montjuïc","08028","019","BARCELONA","41.376928","2.13476","427647.745","4580962.16","427739.652","4581163.084","934097208","#","","","","","","","",
"92168164557","Centre Educatiu Betània-Patmos","#","Av","Esplugues","113","115","21","Pedralbes","04","Les Corts","08034","019","BARCELONA","41.394501","2.112176","425779.251","4582932.179","425871.14","4583133.12","932039995","#","(edifici av Esplugues)","","","","","","",
"92168164557","Centre Educatiu Betània-Patmos","#","Av","Mare de Déu de Lorda","2","2","23","Sarrià","05","Sarrià-Sant Gervasi","08034","019","BARCELONA","41.39658","2.109782","425581.457","4583165.009","425673.344","4583365.952","932521908","Fax","","","","","","","",
"92168164557","Centre Educatiu Betània-Patmos","#","Av","Esplugues","113","115","21","Pedralbes","04","Les Corts","08034","019","BARCELONA","41.394501","2.112176","425779.251","4582932.179","425871.14","4583133.12","932521908","Fax","","","","","","","",
"92168164557","Centre Educatiu Betània-Patmos","#","Av","Mare de Déu de Lorda","2","2","23","Sarrià","05","Sarrià-Sant Gervasi","08034","019","BARCELONA","41.39658","2.109782","425581.457","4583165.009","425673.344","4583365.952","932521900","#","","","","","","","",
"92168164557","Centre Educatiu Betània-Patmos","#","Av","Esplugues","113","115","21","Pedralbes","04","Les Corts","08034","019","BARCELONA","41.394501","2.112176","425779.251","4582932.179","425871.14","4583133.12","932521900","#","","","","","","","",
"92168164557","Centre Educatiu Betània-Patmos","#","Av","Mare de Déu de Lorda","2","2","23","Sarrià","05","Sarrià-Sant Gervasi","08034","019","BARCELONA","41.39658","2.109782","425581.457","4583165.009","425673.344","4583365.952","932039995","#","(edifici av Esplugues)","","","","","","",
"92168164573","Escola Bogatell","#","C","Ramon Turró","74","76","67","la Vila Olímpica del Poblenou","10","Sant Martí","08005","019","BARCELONA","41.393435","2.194462","432657.165","4582746.57","432749.118","4582947.512","932250494","#","","","","","","","",
"92168164573","Escola Bogatell","#","C","Ramon Turró","74","76","67","la Vila Olímpica del Poblenou","10","Sant Martí","08005","019","BARCELONA","41.393435","2.194462","432657.165","4582746.57","432749.118","4582947.512","932250494","Fax","","","","","","","",
"92168164575","Centre Educatiu Bon Pastor","#","C","Sant Adrià","134","134","59","el Bon Pastor","09","Sant Andreu","08030","019","BARCELONA","41.435821","2.204396","433530.915","4587444.538","433622.874","4587645.523","933140451","#","","","","","","","",
"92168164575","Centre Educatiu Bon Pastor","#","C","Sant Adrià","134","134","59","el Bon Pastor","09","Sant Andreu","08030","019","BARCELONA","41.435821","2.204396","433530.915","4587444.538","433622.874","4587645.523","933149250","Fax","","","","","","","",
"92168164582","Escola Brasil","#","G.V.","Corts Catalanes","1108","1108","71","Provençals del Poblenou","10","Sant Martí","08020","019","BARCELONA","41.416222","2.204847","433548.623","4585268.317","433640.583","4585469.282","933086985","Fax","","","","","","","",
"92168164582","Escola Brasil","#","G.V.","Corts Catalanes","1108","1108","71","Provençals del Poblenou","10","Sant Martí","08020","019","BARCELONA","41.416222","2.204847","433548.623","4585268.317","433640.583","4585469.282","933086995","#","","","","","","","",
"92168164601","Escola La Caixa","#","C","Andrade","182","182","72","Sant Martí de Provençals","10","Sant Martí","08020","019","BARCELONA","41.417291","2.203062","433400.512","4585388.393","433492.471","4585589.359","933146420","#","","","","","","","",
"92168164605","Centre Educatiu Escolàpies Sant Martí - Barcelona","#","C","Joan de Peguera","42","42","64","el Camp de l'Arpa del Clot","10","Sant Martí","08026","019","BARCELONA","41.412395","2.181667","431607.369","4584861.602","431699.311","4585062.563","934569303","#","","","","","","","",
"92168164605","Centre Educatiu Escolàpies Sant Martí - Barcelona","#","C","Joan de Peguera","42","42","64","el Camp de l'Arpa del Clot","10","Sant Martí","08026","019","BARCELONA","41.412395","2.181667","431607.369","4584861.602","431699.311","4585062.563","934569302","Fax","","","","","","","",
"92168164607","Escola Calderón de la Barca","#","C","Nil","27","29","46","el Turó de la Peira","08","Nou Barris","08031","019","BARCELONA","41.433706","2.171545","430784.086","4587235.537","430876.02","4587436.52","934084651","#","","","","","","","",
"92168164612","Escola Can Clos","#","C","Pedrera del Mussol","10","14","13","la Marina de Port","03","Sants-Montjuïc","08038","019","BARCELONA","41.360791","2.147585","428702.616","4579159.99","428794.533","4579360.897","933326145","#","","","","","","","",
"92168164612","Escola Can Clos","#","C","Pedrera del Mussol","10","14","13","la Marina de Port","03","Sants-Montjuïc","08038","019","BARCELONA","41.360791","2.147585","428702.616","4579159.99","428794.533","4579360.897","933326145","Fax","","","","","","","",
"92168164626","Escola Prosperitat","#","C","Molí","57","57","52","la Prosperitat","08","Nou Barris","08016","019","BARCELONA","41.44471","2.18122","431603.965","4588449.485","431695.906","4588650.479","933503604","#","","","","","","","",
"92168164628","Centre Educatiu Abat Oliba-Spínola","#","Av","Mare de Déu de Montserrat","86","86","33","el Baix Guinardó","07","Horta-Guinardó","08024","019","BARCELONA","41.415597","2.16785","430456.07","4585227.983","430548.002","4585428.947","934565381","#","","","","","","","",
"92168164632","Escola Poble-sec","#","Pg","Exposició","1","1","11","el Poble-sec","03","Sants-Montjuïc","08004","019","BARCELONA","41.369949","2.163863","430073.976","4580163.42","430165.906","4580364.337","934416807","Fax","","","","","","","",
"92168164632","Escola Poble-sec","#","Pg","Exposició","1","1","11","el Poble-sec","03","Sants-Montjuïc","08004","019","BARCELONA","41.369949","2.163863","430073.976","4580163.42","430165.906","4580364.337","934416807","#","","","","","","","",
"92168164633","Escola d'Educació Infantil Carles Riba","#","C","Pomaret","11","11","25","Sant Gervasi - la Bonanova","05","Sarrià-Sant Gervasi","08017","019","BARCELONA","41.403313","2.124864","426849.814","4583899.631","426941.713","4584100.582","932063013","#","","","","","","","",
"92168164635","Escola Carlit","#","C","Roger de Flor","162","162","07","la Dreta de Eixample","02","Eixample","08013","019","BARCELONA","41.397403","2.174736","431012.247","4583202.6","431104.185","4583403.545","932652222","#","","","","","","","",
"92168164647","Escola Casas","#","C","Sant Joan de Malta","44","44","65","el Clot","10","Sant Martí","08018","019","BARCELONA","41.408477","2.192809","432534.512","4584417.802","432626.463","4584618.759","934851483","Fax","","","","","","","",
"92168164647","Escola Casas","#","C","Sant Joan de Malta","44","44","65","el Clot","10","Sant Martí","08018","019","BARCELONA","41.408477","2.192809","432534.512","4584417.802","432626.463","4584618.759","933004265","#","","","","","","","",
"92168164654","Escola Castella","#","Pl","Castella","8","8","01","el Raval","01","Ciutat Vella","08001","019","BARCELONA","41.384975","2.164617","430153.059","4581831.021","430244.989","4582031.953","933020835","#","","","","","","","",
"92168164659","Escola Catalònia","#","C","Perú","195","195","71","Provençals del Poblenou","10","Sant Martí","08020","019","BARCELONA","41.412882","2.201384","433255.78","4584900.258","433347.738","4585101.22","933076366","#","","","","","","","",
"92168164665","Escola Cavall Bernat","#","Rbla","Badal","113","113","16","la Bordeta","03","Sants-Montjuïc","08014","019","BARCELONA","41.371059","2.131952","427406.416","4580312.948","427498.321","4580513.866","933322930","#","","","","","","","",
"92168164665","Escola Cavall Bernat","#","Rbla","Badal","113","113","16","la Bordeta","03","Sants-Montjuïc","08014","019","BARCELONA","41.371059","2.131952","427406.416","4580312.948","427498.321","4580513.866","933322930","Fax","","","","","","","",
"92168164758","Escola Ciutat Comtal","#","C","Pujalt","6","8","56","Vallbona","08","Nou Barris","08033","019","BARCELONA","41.462949","2.182793","431754.47","4590473.145","431846.412","4590674.158","933592942","#","","","","","","","",
"92168164758","Escola Ciutat Comtal","#","C","Pujalt","6","8","56","Vallbona","08","Nou Barris","08033","019","BARCELONA","41.462949","2.182793","431754.47","4590473.145","431846.412","4590674.158","933592942","Fax","","","","","","","",
"92168164760","Centre Educatiu Claret","#","C","Sant Antoni Maria Claret","49","49","32","el Camp d'en Grassot i Gràcia Nova","06","Gràcia","08025","019","BARCELONA","41.405951","2.166602","430341.438","4584158.11","430433.369","4584359.064","932081830","#","","","","","","","",
"92168164760","Centre Educatiu Claret","#","C","Sant Antoni Maria Claret","49","49","32","el Camp d'en Grassot i Gràcia Nova","06","Gràcia","08025","019","BARCELONA","41.405951","2.166602","430341.438","4584158.11","430433.369","4584359.064","932081831","Fax","","","","","","","",
"92168164762","Centre Educatiu Jesús Maria Claudina Thévenet *Rambla  Caçador","#","Rbla","Caçador","6","12","48","la Guineueta","08","Nou Barris","08042","019","BARCELONA","41.440794","2.167679","430468.637","4588025.577","430560.568","4588226.567","934270125","#","","","","","","","",
"92168164762","Centre Educatiu Jesús Maria Claudina Thévenet *Rambla  Caçador","#","Rbla","Caçador","6","12","48","la Guineueta","08","Nou Barris","08042","019","BARCELONA","41.440794","2.167679","430468.637","4588025.577","430560.568","4588226.567","934278979","Fax","","","","","","","",
"92168164764","Centre Educatiu Closa","#","C","Emili Roca","22","22","44","Vilapicina i la Torre Llobeta","08","Nou Barris","08016","019","BARCELONA","41.429254","2.178193","431334.778","4586735.917","431426.717","4586936.895","933493939","#","","","","","","","",
"92168164764","Centre Educatiu Closa","#","C","Emili Roca","22","22","44","Vilapicina i la Torre Llobeta","08","Nou Barris","08016","019","BARCELONA","41.429254","2.178193","431334.778","4586735.917","431426.717","4586936.895","933510001","Fax","","","","","","","",
"92168164771","Escola Collaso i Gil","#","C","Sant Pau","101","101","01","el Raval","01","Ciutat Vella","08001","019","BARCELONA","41.376217","2.168985","430508.96","4580855.175","430600.894","4581056.098","934410098","#","","","","","","","",
"92168164771","Escola Collaso i Gil","#","C","Sant Pau","101","101","01","el Raval","01","Ciutat Vella","08001","019","BARCELONA","41.376217","2.168985","430508.96","4580855.175","430600.894","4581056.098","934410114","Fax","","","","","","","",
"92168164772","Escola Bressol Municipal Collserola","#","C","Mare de Déu de Port","183","183","13","la Marina de Port","03","Sants-Montjuïc","08038","019","BARCELONA","41.355779","2.145605","428531.504","4578605.224","428623.42","4578806.126","932233093","#","","","","","","","",
"92168164783","Escola Concepción Arenal","#","C","Cristóbal de Moura","240","240","70","el Besòs i el Maresme","10","Sant Martí","08019","019","BARCELONA","41.417487","2.215342","434426.96","4585400.862","434518.928","4585601.829","933052151","Fax","","","","","","","",
"92168164783","Escola Concepción Arenal","#","C","Cristóbal de Moura","240","240","70","el Besòs i el Maresme","10","Sant Martí","08019","019","BARCELONA","41.417487","2.215342","434426.96","4585400.862","434518.928","4585601.829","933052151","#","","","","","","","",
"92168164787","Llar d'Infants Congrés","#","C","Concepción Arenal","145","149","62","el Congrés i els Indians","09","Sant Andreu","08027","019","BARCELONA","41.426059","2.18406","431821.72","4586376.588","431913.664","4586577.563","933520365","#","","","","","","","",
"92168164803","Escola Coves d'en Cimany","#","C","Coves d'en Cimany","42","54","37","el Carmel","07","Horta-Guinardó","08032","019","BARCELONA","41.420741","2.15284","429207.204","4585811.225","429299.124","4586012.194","933585053","#","","","","","","","",
"92168164803","Escola Coves d'en Cimany","#","C","Coves d'en Cimany","42","54","37","el Carmel","07","Horta-Guinardó","08032","019","BARCELONA","41.420741","2.15284","429207.204","4585811.225","429299.124","4586012.194","934295350","Fax","","","","","","","",
"92168164826","Llar d'Infants Daina","#","C","Santa Amàlia","42","42","43","Horta","07","Horta-Guinardó","08031","019","BARCELONA","41.42991","2.163357","430095.877","4586820.657","430187.805","4587021.636","","No tenen telèfon","","","","","","","",
"92168164884","Escola del Mar","#","C","Gènova","12","12","35","el Guinardó","07","Horta-Guinardó","08041","019","BARCELONA","41.41786","2.170163","430651.75","4585477.399","430743.684","4585678.365","934364751","#","","","","","","","",
"92168164884","Escola del Mar","#","C","Gènova","12","12","35","el Guinardó","07","Horta-Guinardó","08041","019","BARCELONA","41.41786","2.170163","430651.75","4585477.399","430743.684","4585678.365","934364440","Fax","","","","","","","",
"92168164894","Llar d'Infants Didacta","#","C","Congrés","114","116","43","Horta","07","Horta-Guinardó","08031","019","BARCELONA","41.437752","2.159782","429805.617","4587694.157","429897.542","4587895.144","934273104","#","","","","","","","",
"92168164900","Escola Diputació","#","C","Diputació","112","112","09","la Nova Esquerra de l'Eixample","02","Eixample","08015","019","BARCELONA","41.381501","2.155983","429427.39","4581452.348","429519.313","4581653.277","934546868","#","","","","","","","",
"92168164903","Escola Doctor Ferran i Clua","#","C","Manigua","25","39","62","el Congrés i els Indians","09","Sant Andreu","08027","019","BARCELONA","41.424014","2.179446","431433.981","4586153.27","431525.922","4586354.243","933404625","#","","","","","","","",
"92168164903","Escola Doctor Ferran i Clua","#","C","Manigua","25","39","62","el Congrés i els Indians","09","Sant Andreu","08027","019","BARCELONA","41.424014","2.179446","431433.981","4586153.27","431525.922","4586354.243","933520271","Fax","","","","","","","",
"92168164904","Escola Dolors Monserdà-Santapau","#","Av","Vallvidrera","9","9","23","Sarrià","05","Sarrià-Sant Gervasi","08017","019","BARCELONA","41.405268","2.115342","426056.124","4584124.79","426148.016","4584325.742","932031278","Fax","","","","","","","",
"92168164904","Escola Dolors Monserdà-Santapau","#","Av","Vallvidrera","9","9","23","Sarrià","05","Sarrià-Sant Gervasi","08017","019","BARCELONA","41.405268","2.115342","426056.124","4584124.79","426148.016","4584325.742","932031278","#","","","","","","","",
"92168164909","Escola Dovella","#","C","Mallorca","595","595","64","el Camp de l'Arpa del Clot","10","Sant Martí","08026","019","BARCELONA","41.411386","2.185744","431947.059","4584746.36","432039.005","4584947.32","934569020","#","","","","","","","",
"92168164913","Escola Drassanes","#","C","Nou de Sant Francesc","11","11","02","el Barri Gòtic","01","Ciutat Vella","08002","019","BARCELONA","41.379108","2.177293","431206.745","4581169.505","431298.685","4581370.432","933189733","#","","","","","","","",
"92168164915","Escola Duran i Bas","#","C","Vallespir","198","198","19","les Corts","04","Les Corts","08014","019","BARCELONA","41.385281","2.133305","427535.408","4581890.645","427627.314","4582091.577","934908159","#","","","","","","","",
"92168164921","Escola Taxonera","#","C","Farnés","60","72","37","el Carmel","07","Horta-Guinardó","08032","019","BARCELONA","41.426331","2.15316","429240.059","4586431.605","429331.979","4586632.58","933570129","Fax","","","","","","","",
"92168164921","Escola Taxonera","#","C","Farnés","60","72","37","el Carmel","07","Horta-Guinardó","08032","019","BARCELONA","41.426331","2.15316","429240.059","4586431.605","429331.979","4586632.58","933585164","#","","","","","","","",
"92168164922","Escola Eduard Marquina","#","C","Jaume Huguet","22","22","70","el Besòs i el Maresme","10","Sant Martí","08019","019","BARCELONA","41.418433","2.214082","434322.586","4585506.815","434414.553","4585707.783","933053001","#","","","","","","","",
"92168164924","Centre Educatiu Projecte","#","Av","Tibidabo","16","16","25","Sant Gervasi - la Bonanova","05","Sarrià-Sant Gervasi","08022","019","BARCELONA","41.41167","2.136204","427806.958","4584817.984","427898.865","4585018.943","934170321","Fax","","","","","","","",
"92168164924","Centre Educatiu Projecte","#","Av","Tibidabo","16","16","25","Sant Gervasi - la Bonanova","05","Sarrià-Sant Gervasi","08022","019","BARCELONA","41.41167","2.136204","427806.958","4584817.984","427898.865","4585018.943","934170321","#","","","","","","","",
"92168164930","Escola El Carmel","#","C","Llobregós","154","154","37","el Carmel","07","Horta-Guinardó","08032","019","BARCELONA","41.423397","2.154239","429326.995","4586105.01","429418.916","4586305.982","934294698","Fax","","","","","","","",
"92168164930","Escola El Carmel","#","C","Llobregós","154","154","37","el Carmel","07","Horta-Guinardó","08032","019","BARCELONA","41.423397","2.154239","429326.995","4586105.01","429418.916","4586305.982","934294698","#","","","","","","","",
"92168164931","Llar d'Infants El Cau","#","C","Argentona","17","17","31","la Vila de Gràcia","06","Gràcia","08024","019","BARCELONA","41.408529","2.159009","429709.579","4584450.433","429801.504","4584651.39","932102806","#","","","","","","","",
"92168164945","Parvulari El Picarol","#","C","Guardiola i Feliu","21","21","60","Sant Andreu","09","Sant Andreu","08030","019","BARCELONA","41.438723","2.190493","432372.362","4587777.564","432464.311","4587978.552","932741964","#","","","","","","","",
"92168164947","Escola el Polvorí","#","Camí","Polvorí","8","10","13","la Marina de Port","03","Sants-Montjuïc","08038","019","BARCELONA","41.363675","2.142904","428314.268","4579484.096","428406.182","4579685.006","933327496","#","","","","","","","",
"92168164947","Escola el Polvorí","#","Camí","Polvorí","8","10","13","la Marina de Port","03","Sants-Montjuïc","08038","019","BARCELONA","41.363675","2.142904","428314.268","4579484.096","428406.182","4579685.006","933327496","Fax","","","","","","","",
"92168164951","Escola el Sagrer","#","C","Costa Rica","26","26","61","la Sagrera","09","Sant Andreu","08027","019","BARCELONA","41.422019","2.189588","432279.448","4585923.764","432371.396","4586124.735","933516045","#","","","","","","","",
"92168164951","Escola el Sagrer","#","C","Costa Rica","26","26","61","la Sagrera","09","Sant Andreu","08027","019","BARCELONA","41.422019","2.189588","432279.448","4585923.764","432371.396","4586124.735","934084687","Fax","","","","","","","",
"92168164954","Escola Timbaler del Bruc","#","C","Arnau d'Oms","4","4","44","Vilapicina i la Torre Llobeta","08","Nou Barris","08016","019","BARCELONA","41.428458","2.177469","431273.447","4586648.125","431365.386","4586849.102","933522951","Fax","","","","","","","",
"92168164954","Escola Timbaler del Bruc","#","C","Arnau d'Oms","4","4","44","Vilapicina i la Torre Llobeta","08","Nou Barris","08016","019","BARCELONA","41.428458","2.177469","431273.447","4586648.125","431365.386","4586849.102","933522951","#","","","","","","","",
"92168164962","Escola Elisenda de Montcada","#","C","Vallcivera","1","1","55","Ciutat Meridiana","08","Nou Barris","08033","019","BARCELONA","41.461698","2.179538","431481.352","4590336.801","431573.292","4590537.813","933592941","Fax","","","","","","","",
"92168164962","Escola Elisenda de Montcada","#","C","Vallcivera","1","1","55","Ciutat Meridiana","08","Nou Barris","08033","019","BARCELONA","41.461698","2.179538","431481.352","4590336.801","431573.292","4590537.813","933592941","#","","","","","","","",
"92168164967","Escola Els Horts","#","Rbla","Prim","217","217","73","la Verneda i la Pau","10","Sant Martí","08020","019","BARCELONA","41.424297","2.201375","433266.729","4586167.499","433358.686","4586368.472","933133550","Fax","","","","","","","",
"92168164967","Escola Els Horts","#","Rbla","Prim","217","217","73","la Verneda i la Pau","10","Sant Martí","08020","019","BARCELONA","41.424297","2.201375","433266.729","4586167.499","433358.686","4586368.472","933133550","#","","","","","","","",
"92168164969","Escola els Pins","#","Pg","Vall d'Hebron","181","181","40","Montbau","07","Horta-Guinardó","08035","019","BARCELONA","41.435759","2.147171","428749.909","4587483.23","428841.824","4587684.214","934284193","#","","","","","","","",
"92168164969","Escola els Pins","#","Pg","Vall d'Hebron","181","181","40","Montbau","07","Horta-Guinardó","08035","019","BARCELONA","41.435759","2.147171","428749.909","4587483.23","428841.824","4587684.214","934281063","Fax","","","","","","","",
"92168164972","Escola Emili Juncadella","#","C","Juan de Garay","12","12","63","Navas","09","Sant Andreu","08041","019","BARCELONA","41.418078","2.181434","431593.927","4585492.665","431685.869","4585693.632","934087319","Fax","","","","","","","",
"92168164972","Escola Emili Juncadella","#","C","Juan de Garay","12","12","63","Navas","09","Sant Andreu","08041","019","BARCELONA","41.418078","2.181434","431593.927","4585492.665","431685.869","4585693.632","933518304","#","","","","","","","",
"92168164975","Escola Bac de Roda","#","C","Huelva","33","33","72","Sant Martí de Provençals","10","Sant Martí","08020","019","BARCELONA","41.415966","2.194108","432650.879","4585248.231","432742.831","4585449.196","933071431","#","","","","","","","",
"92168164975","Escola Bac de Roda","#","C","Huelva","33","33","72","Sant Martí de Provençals","10","Sant Martí","08020","019","BARCELONA","41.415966","2.194108","432650.879","4585248.231","432742.831","4585449.196","933071431","Fax","","","","","","","",
"92168164980","Escola Mestre Enric Gibert i Camins","#","C","Irlanda","15","15","60","Sant Andreu","09","Sant Andreu","08030","019","BARCELONA","41.43143","2.185754","431968.869","4586971.539","432060.814","4587172.52","933458649","#"," ","","","","","","",
"92168164980","Escola Mestre Enric Gibert i Camins","#","C","Irlanda","15","15","60","Sant Andreu","09","Sant Andreu","08030","019","BARCELONA","41.43143","2.185754","431968.869","4586971.539","432060.814","4587172.52","932741373","Fax"," ","","","","","","",
